 {
    "BBA" : {
      "country_code" : "CL",
     "city" : "Balmaceda",
      "airport_name": "Teniente Vidal",
     "airportcode" : "BBA",
      "cid" : 0,
      "latitude"  : "-45.9167",
      "longitude"  : "-71.7",
      "sid" : 0,
      "cyid" : 0,
      "listing_display" : true,
      "dst_indicator" : "S",
      "outbound" : 142,
      "tzr" : "America/Santiago",
      "timezone"  : "-4",
      "country"  : "Chile",
      "region" : "TC1"
    },
    
    "SCQ" : {
      "country_code" : "ES",
     "city" : "Santiago",
      "airport_name": "Santiago",
     "airportcode" : "SCQ",
      "cid" : 0,
      "latitude"  : "42.896333",
      "longitude"  : "-8.415144",
      "sid" : 0,
      "cyid" : 0,
      "listing_display" : true,
      "dst_indicator" : "E",
      "outbound" : 315,
      "tzr" : "Europe/Madrid",
      "timezone"  : "1",
      "country"  : "Spain",
      "region" : "TC1"
    },
    "JRH" : {
      "country_code" : "IN",
     "city" : "Jorhat",
      "airport_name": "Rowriah",
     "airportcode" : "JRH",
      "cid" : 0,
      "latitude"  : "26.731528",
      "longitude"  : "94.175536",
      "sid" : 0,
      "cyid" : 0,
      "listing_display" : true,
      "dst_indicator" : "N",
      "outbound" : 20,
      "tzr" : "Asia/Kolkata",
      "timezone"  : "5.5",
      "country"  : "India",
      "region" : "TC1"
    },
    "SCU" : {
      "country_code" : "CU",
     "city" : "Santiago De Cuba",
      "airport_name": "Antonio Maceo",
     "airportcode" : "SCU",
      "cid" : 0,
      "latitude"  : "19.969769",
      "longitude"  : "-75.835414",
      "sid" : 0,
      "cyid" : 0,
      "listing_display" : true,
      "dst_indicator" : "U",
      "outbound" : 53,
      "tzr" : "America/Havana",
      "timezone"  : "-5",
      "country"  : "Cuba",
      "region" : "TC1"
    },
    "SCT" : {
      "country_code" : "YE",
     "city" : "Socotra",
      "airport_name": "Socotra",
     "airportcode" : "SCT",
      "cid" : 0,
      "latitude"  : "12.630672",
      "longitude"  : "53.905778",
      "sid" : 0,
      "cyid" : 0,
      "listing_display" : true,
      "dst_indicator" : "U",
      "outbound" : 10,
      "tzr" : "Asia/Aden",
      "timezone"  : "3",
      "country"  : "Yemen",
      "region" : "TC1"
    },
    "JRO" : {
      "country_code" : "timezone" ,
     "city" : "Kilimanjaro",
      "airport_name": "Kilimanjaro",
     "airportcode" : "JRO",
      "cid" : 0,
      "latitude"  : "-3.75",
      "longitude"  : "37.75",
      "sid" : 0,
      "cyid" : 0,
      "listing_display" : true,
      "dst_indicator" : "U",
      "outbound" : 456,
      "tzr" : "Africa/Dar_es_Salaam",
      "timezone"  : "3",
      "country"  : "Tanzania",
      "region" : "TC1"
    },
    "SCW" : {
      "country_code" : "RU",
     "city" : "Syktyvkar",
      "airport_name": "Syktyvkar",
     "airportcode" : "SCW",
      "cid" : 0,
      "latitude"  : "61.64705",
      "longitude"  : "50.84505",
      "sid" : 0,
      "cyid" : 0,
      "listing_display" : true,
      "dst_indicator" : "E",
      "outbound" : 18,
      "tzr" : "Europe/Moscow",
      "timezone"  : "3",
      "country"  : "Russia",
      "region" : "TC1"
    },
    "SCV" : {
      "country_code" : "RO",
     "city" : "Suceava",
      "airport_name": "Stefan Cel Mare",
     "airportcode" : "SCV",
      "cid" : 0,
      "latitude"  : "47.6875",
      "longitude"  : "26.354056",
      "sid" : 0,
      "cyid" : 0,
      "listing_display" : true,
      "dst_indicator" : "E",
      "outbound" : 7,
      "tzr" : "Europe/Bucharest",
      "timezone"  : "2",
      "country"  : "Romania",
      "region" : "TC1"
    },
    "BBI" : {
      "country_code" : "IN",
     "city" : "Bhubaneswar",
      "airport_name": "Biju Patnaik",
     "airportcode" : "BBI",
      "cid" : 0,
      "latitude"  : "20.2488",
      "longitude"  : "85.8148",
      "sid" : 0,
      "cyid" : 0,
      "listing_display" : true,
      "dst_indicator" : "N",
      "outbound" : 56,
      "tzr" : "Asia/Kolkata",
      "timezone"  : "5.5",
      "country"  : "India",
      "region" : "TC1"
    },
    "SCX" : {
      "country_code" : "MX",
     "city" : "Salina Cruz",
      "airport_name": "Salina Cruz Naval Air Station",
     "airportcode" : "SCX",
      "cid" : 0,
      "latitude"  : "16.2126",
      "longitude"  : "-95.2016",
      "sid" : 0,
      "cyid" : 0,
      "listing_display" : true,
      "dst_indicator" : "S",
      "outbound" : 0,
      "tzr" : "America/Mexico_City",
      "timezone"  : "-6",
      "country"  : "Mexico",
      "region" : "TC1"
    },
    "BBK" : {
      "country_code" : "BW",
     "city" : "Kasane",
      "airport_name": "Kasane",
     "airportcode" : "BBK",
      "cid" : 0,
      "latitude"  : "-17.7833",
      "longitude"  : "25.1667",
      "sid" : 0,
      "cyid" : 0,
      "listing_display" : true,
      "dst_indicator" : "U",
      "outbound" : 15,
      "tzr" : "Africa/Gaborone",
      "timezone"  : "2",
      "country"  : "Botswana",
      "region" : "TC1"
    },
    "BBJ" : {
      "country_code" : "DE",
     "city" : "Bautzen",
      "airport_name": "Bautzen",
     "airportcode" : "BBJ",
      "cid" : 0,
      "latitude"  : "51.193531",
      "longitude"  : "14.519747",
      "sid" : 0,
      "cyid" : 0,
      "listing_display" : true,
      "dst_indicator" : "E",
      "outbound" : 0,
      "tzr" : "Europe/Berlin",
      "timezone"  : "1",
      "country"  : "Germany",
      "region" : "TC1"
    },
    "SCZ" : {
      "country_code" : "SB",
     "city" : "Santa Cruz/graciosa Bay/luova",
      "airport_name": "Santa Cruz/Graciosa Bay/Luova",
     "airportcode" : "SCZ",
      "cid" : 0,
      "latitude"  : "-10.7203",
      "longitude"  : "165.795",
      "sid" : 0,
      "cyid" : 0,
      "listing_display" : true,
      "dst_indicator" : "U",
      "outbound" : 3,
      "tzr" : "Pacific/Guadalcanal",
      "timezone"  : "11",
      "country"  : "Solomon Islands",
      "region" : "TC1"
    },
    "BBN" : {
      "country_code" : "MY",
     "city" : "Bario",
      "airport_name": "Bario",
     "airportcode" : "BBN",
      "cid" : 0,
      "latitude"  : "3.73389",
      "longitude"  : "115.479",
      "sid" : 0,
      "cyid" : 0,
      "listing_display" : true,
      "dst_indicator" : "U",
      "outbound" : 10,
      "tzr" : "Asia/Kuching",
      "timezone"  : "8",
      "country"  : "Malaysia",
      "region" : "TC1"
    },
    "SDD" : {
      "country_code" : "AO",
     "city" : "Lubango",
      "airport_name": "Lubango",
     "airportcode" : "SDD",
      "cid" : 0,
      "latitude"  : "-14.924733",
      "longitude"  : "13.575022",
      "sid" : 0,
      "cyid" : 0,
      "listing_display" : true,
      "dst_indicator" : "N",
      "outbound" : 20,
      "tzr" : "Africa/Luanda",
      "timezone"  : "1",
      "country"  : "Angola",
      "region" : "TC1"
    },
    "BBU" : {
      "country_code" : "RO",
     "city" : "Bucharest",
      "airport_name": "Aurel Vlaicu",
     "airportcode" : "BBU",
      "cid" : 0,
      "latitude"  : "44.503194",
      "longitude"  : "26.102111",
      "sid" : 0,
      "cyid" : 0,
      "listing_display" : true,
      "dst_indicator" : "E",
      "outbound" : 52,
      "tzr" : "Europe/Bucharest",
      "timezone"  : "2",
      "country"  : "Romania",
      "region" : "TC1"
    },
    "SDF" : {
      "country_code" : "US",
     "city" : "Louisville",
      "airport_name": "Louisville",
     "airportcode" : "SDF",
      "cid" : 0,
      "latitude"  : "38.1833",
      "longitude"  : "-85.7333",
      "sid" : 0,
      "cyid" : 0,
      "listing_display" : true,
      "dst_indicator" : "A",
      "outbound" : 4721,
      "tzr" : "America/Kentucky/Louisville",
      "timezone"  : "-4",
      "country"  : "United States",
      "region" : "TC1"
    },
    "SDE" : {
      "country_code" : "AR",
     "city" : "Santiago Del Estero",
      "airport_name": "Santiago Del Estero",
     "airportcode" : "SDE",
      "cid" : 0,
      "latitude"  : "-27.765617",
      "longitude"  : "-64.310122",
      "sid" : 0,
      "cyid" : 0,
      "listing_display" : true,
      "dst_indicator" : "S",
      "outbound" : 4,
      "tzr" : "America/Argentina/Cordoba",
      "timezone"  : "-3",
      "country"  : "Argentina",
      "region" : "TC1"
    },
    "SDG" : {
      "country_code" : "IR",
     "city" : "Sanandaj",
      "airport_name": "Sanandaj",
     "airportcode" : "SDG",
      "cid" : 0,
      "latitude"  : "35.245856",
      "longitude"  : "47.009247",
      "sid" : 0,
      "cyid" : 0,
      "listing_display" : true,
      "dst_indicator" : "E",
      "outbound" : 3,
      "tzr" : "Asia/Tehran",
      "timezone"  : "4",
      "country"  : "Iran",
      "region" : "TC1"
    },
    "SDJ" : {
      "country_code" : "JP",
     "city" : "Sendai",
      "airport_name": "Sendai",
     "airportcode" : "SDJ",
      "cid" : 0,
      "latitude"  : "38.1333",
      "longitude"  : "140.9167",
      "sid" : 0,
      "cyid" : 0,
      "listing_display" : true,
      "dst_indicator" : "U",
      "outbound" : 345,
      "tzr" : "Asia/Tokyo",
      "timezone"  : "9",
      "country"  : "Japan",
      "region" : "TC1"
    },
    "JSA" : {
      "country_code" : "IN",
     "city" : "Jaisalmer",
      "airport_name": "Jaisalmer",
     "airportcode" : "JSA",
      "cid" : 0,
      "latitude"  : "26.8262",
      "longitude"  : "75.8146",
      "sid" : 0,
      "cyid" : 0,
      "listing_display" : true,
      "dst_indicator" : "N",
      "outbound" : 0,
      "tzr" : "Asia/Kolkata",
      "timezone"  : "5.5",
      "country"  : "India",
      "region" : "TC1"
    },
    "SDL" : {
      "country_code" : "SE",
     "city" : "Sundsvall",
      "airport_name": "Sundsvall",
     "airportcode" : "SDL",
      "cid" : 0,
      "latitude"  : "62.3833",
      "longitude"  : "17.3",
      "sid" : 0,
      "cyid" : 0,
      "listing_display" : true,
      "dst_indicator" : "E",
      "outbound" : 265,
      "tzr" : "Europe/Stockholm",
      "timezone"  : "2",
      "country"  : "Sweden",
      "region" : "TC1"
    },
    "SDK" : {
      "country_code" : "MY",
     "city" : "Sandakan",
      "airport_name": "Sandakan",
     "airportcode" : "SDK",
      "cid" : 0,
      "latitude"  : "5.900897",
      "longitude"  : "118.059486",
      "sid" : 0,
      "cyid" : 0,
      "listing_display" : true,
      "dst_indicator" : "U",
      "outbound" : 30,
      "tzr" : "Asia/Kuching",
      "timezone"  : "8",
      "country"  : "Malaysia",
      "region" : "TC1"
    },
    "SDN" : {
      "country_code" : "NO",
     "city" : "Sandane",
      "airport_name": "Anda",
     "airportcode" : "SDN",
      "cid" : 0,
      "latitude"  : "61.83",
      "longitude"  : "6.10583",
      "sid" : 0,
      "cyid" : 0,
      "listing_display" : true,
      "dst_indicator" : "E",
      "outbound" : 98,
      "tzr" : "Europe/Oslo",
      "timezone"  : "1",
      "country"  : "Norway",
      "region" : "TC1"
    },
    "JSH" : {
      "country_code" : "GR",
     "city" : "Sitia",
      "airport_name": "Sitia",
     "airportcode" : "JSH",
      "cid" : 0,
      "latitude"  : "35.216108",
      "longitude"  : "26.101325",
      "sid" : 0,
      "cyid" : 0,
      "listing_display" : true,
      "dst_indicator" : "E",
      "outbound" : 22,
      "tzr" : "Europe/Athens",
      "timezone"  : "2",
      "country"  : "Greece",
      "region" : "TC1"
    },
    "SDP" : {
      "country_code" : "US",
     "city" : "Sand Point",
      "airport_name": "Sand Point",
     "airportcode" : "SDP",
      "cid" : 0,
      "latitude"  : "55.315",
      "longitude"  : "-160.523",
      "sid" : 0,
      "cyid" : 0,
      "listing_display" : true,
      "dst_indicator" : "A",
      "outbound" : 20,
      "tzr" : "America/Anchorage",
      "timezone"  : "-9",
      "country"  : "United States",
      "region" : "TC1"
    },
    "SDR" : {
      "country_code" : "ES",
     "city" : "Santander",
      "airport_name": "Santander",
     "airportcode" : "SDR",
      "cid" : 0,
      "latitude"  : "43.4333",
      "longitude"  : "-3.8167",
      "sid" : 0,
      "cyid" : 0,
      "listing_display" : true,
      "dst_indicator" : "E",
      "outbound" : 160,
      "tzr" : "Europe/Madrid",
      "timezone"  : "2",
      "country"  : "Spain",
      "region" : "TC1"
    },
    "BCA" : {
      "country_code" : "CU",
     "city" : "Baracoa Playa",
      "airport_name": "Gustavo Rizo",
     "airportcode" : "BCA",
      "cid" : 0,
      "latitude"  : "20.365317",
      "longitude"  : "-74.506206",
      "sid" : 0,
      "cyid" : 0,
      "listing_display" : true,
      "dst_indicator" : "U",
      "outbound" : 3,
      "tzr" : "America/Havana",
      "timezone"  : "-5",
      "country"  : "Cuba",
      "region" : "TC1"
    },
    "JSI" : {
      "country_code" : "GR",
     "city" : "Skiathos",
      "airport_name": "Alexandros Papadiamantis",
     "airportcode" : "JSI",
      "cid" : 0,
      "latitude"  : "39.1771",
      "longitude"  : "23.503675",
      "sid" : 0,
      "cyid" : 0,
      "listing_display" : true,
      "dst_indicator" : "E",
      "outbound" : 28,
      "tzr" : "Europe/Athens",
      "timezone"  : "2",
      "country"  : "Greece",
      "region" : "TC1"
    },
    "SDQ" : {
      "country_code" : "DO",
     "city" : "Santo Domingo",
      "airport_name": "Las Americas",
     "airportcode" : "SDQ",
      "cid" : 0,
      "latitude"  : "18.4667",
      "longitude"  : "-69.9",
      "sid" : 0,
      "cyid" : 0,
      "listing_display" : true,
      "dst_indicator" : "U",
      "outbound" : 505,
      "tzr" : "America/Santo_Domingo",
      "timezone"  : "-4",
      "country"  : "Dominican Republic",
      "region" : "TC1"
    },
    "BCD" : {
      "country_code" : "PH",
     "city" : "Bacolod",
      "airport_name": "Bacolod",
     "airportcode" : "BCD",
      "cid" : 0,
      "latitude"  : "10.642511",
      "longitude"  : "122.929617",
      "sid" : 0,
      "cyid" : 0,
      "listing_display" : true,
      "dst_indicator" : "U",
      "outbound" : 42,
      "tzr" : "Asia/Manila",
      "timezone"  : "8",
      "country"  : "Philippines",
      "region" : "TC1"
    },
    "SDT" : {
      "country_code" : "PK",
     "city" : "Saidu Sharif",
      "airport_name": "Saidu Sharif",
     "airportcode" : "SDT",
      "cid" : 0,
      "latitude"  : "34.813556",
      "longitude"  : "72.352814",
      "sid" : 0,
      "cyid" : 0,
      "listing_display" : true,
      "dst_indicator" : "U",
      "outbound" : 0,
      "tzr" : "Asia/Karachi",
      "timezone"  : "5",
      "country"  : "Pakistan",
      "region" : "TC1"
    },
    "SDV" : {
      "country_code" : "IL",
     "city" : "Tel Aviv, Israel",
      "airport_name": "Dov",
     "airportcode" : "SDV",
      "cid" : 0,
      "latitude"  : "32.1167",
      "longitude"  : "34.7833",
      "sid" : 0,
      "cyid" : 0,
      "listing_display" : true,
      "dst_indicator" : "U",
      "outbound" : 99,
      "tzr" : "Asia/Jerusalem",
      "timezone"  : "2",
      "country"  : "Israel",
      "region" : "TC1"
    },
    "SDU" : {
      "country_code" : "BR",
     "city" : "Rio De Janeiro",
      "airport_name": "Santos Dumont",
     "airportcode" : "SDU",
      "cid" : 0,
      "latitude"  : "-22.8333",
      "longitude"  : "-43.25",
      "sid" : 0,
      "cyid" : 0,
      "listing_display" : true,
      "dst_indicator" : "U",
      "outbound" : 649,
      "tzr" : "America/Sao_Paulo",
      "timezone"  : "-3",
      "country"  : "Brazil",
      "region" : "TC1"
    },
    "JSR" : {
      "country_code" : "BD",
     "city" : "Jessore",
      "airport_name": "Jessore",
     "airportcode" : "JSR",
      "cid" : 0,
      "latitude"  : "23.1838",
      "longitude"  : "89.160833",
      "sid" : 0,
      "cyid" : 0,
      "listing_display" : true,
      "dst_indicator" : "U",
      "outbound" : 4,
      "tzr" : "Asia/Dhaka",
      "timezone"  : "6",
      "country"  : "Bangladesh",
      "region" : "TC1"
    },
    "SDZ" : {
      "country_code" : "GB",
     "city" : "Scatsta",
      "airport_name": "Scatsta",
     "airportcode" : "SDZ",
      "cid" : 0,
      "latitude"  : "60.432778",
      "longitude"  : "-1.296111",
      "sid" : 0,
      "cyid" : 0,
      "listing_display" : true,
      "dst_indicator" : "E",
      "outbound" : 0,
      "tzr" : "Europe/London",
      "timezone"  : "1",
      "country"  : "United Kingdom",
      "region" : "TC1"
    },
    "BCI" : {
      "country_code" : "AU",
     "city" : "Barcaldine",
      "airport_name": "Barcaldine",
     "airportcode" : "BCI",
      "cid" : 0,
      "latitude"  : "-23.5653",
      "longitude"  : "145.307",
      "sid" : 0,
      "cyid" : 0,
      "listing_display" : true,
      "dst_indicator" : "O",
      "outbound" : 8,
      "tzr" : "Australia/Brisbane",
      "timezone"  : "10",
      "country"  : "Australia",
      "region" : "TC1"
    },
    "JST" : {
      "country_code" : "US",
     "city" : "Johnstown",
      "airport_name": "Johnstown Cambria",
     "airportcode" : "JST",
      "cid" : 0,
      "latitude"  : "40.3167",
      "longitude"  : "-78.8333",
      "sid" : 0,
      "cyid" : 0,
      "listing_display" : true,
      "dst_indicator" : "A",
      "outbound" : 9,
      "tzr" : "America/New_York",
      "timezone"  : "-4",
      "country"  : "United States",
      "region" : "TC1"
    },
    "BCN" : {
      "country_code" : "ES",
     "city" : "Barcelona",
      "airport_name": "Barcelona",
     "airportcode" : "BCN",
      "cid" : 0,
      "latitude"  : "41.3",
      "longitude"  : "2.0833",
      "sid" : 0,
      "cyid" : 0,
      "listing_display" : true,
      "dst_indicator" : "E",
      "outbound" : 9093,
      "tzr" : "Europe/Madrid",
      "timezone"  : "2",
      "country"  : "Spain",
      "region" : "TC1"
    },
    "BCM" : {
      "country_code" : "RO",
     "city" : "Bacau",
      "airport_name": "Bacau",
     "airportcode" : "BCM",
      "cid" : 0,
      "latitude"  : "46.521946",
      "longitude"  : "26.910278",
      "sid" : 0,
      "cyid" : 0,
      "listing_display" : true,
      "dst_indicator" : "E",
      "outbound" : 47,
      "tzr" : "Europe/Bucharest",
      "timezone"  : "2",
      "country"  : "Romania",
      "region" : "TC1"
    },
    "JSU" : {
      "country_code" : "GL",
     "city" : "Maniitsoq",
      "airport_name": "Maniitsoq",
     "airportcode" : "JSU",
      "cid" : 0,
      "latitude"  : "65.4125",
      "longitude"  : "-52.9394",
      "sid" : 0,
      "cyid" : 0,
      "listing_display" : true,
      "dst_indicator" : "E",
      "outbound" : 62,
      "tzr" : "America/Godthab",
      "timezone"  : "-3",
      "country"  : "Greenland",
      "region" : "TC1"
    },
    "SEA" : {
      "country_code" : "US",
     "city" : "Seattle",
      "airport_name": "Seattle Tacoma",
     "airportcode" : "SEA",
      "cid" : 0,
      "latitude"  : "47.45",
      "longitude"  : "-122.3",
      "sid" : 0,
      "cyid" : 0,
      "listing_display" : true,
      "dst_indicator" : "A",
      "outbound" : 21442,
      "tzr" : "America/Los_Angeles",
      "timezone"  : "-7",
      "country"  : "United States",
      "region" : "TC1"
    },
    "JSY" : {
      "country_code" : "GR",
     "city" : "Syros Island",
      "airport_name": "Syros Island",
     "airportcode" : "JSY",
      "cid" : 0,
      "latitude"  : "37.4236",
      "longitude"  : "24.95",
      "sid" : 0,
      "cyid" : 0,
      "listing_display" : true,
      "dst_indicator" : "E",
      "outbound" : 10,
      "tzr" : "Europe/Athens",
      "timezone"  : "3",
      "country"  : "Greece",
      "region" : "TC1"
    },
    "SEB" : {
      "country_code" : "LY",
     "city" : "Sebha",
      "airport_name": "Sebha",
     "airportcode" : "SEB",
      "cid" : 0,
      "latitude"  : "26.986964",
      "longitude"  : "14.472525",
      "sid" : 0,
      "cyid" : 0,
      "listing_display" : true,
      "dst_indicator" : "N",
      "outbound" : 21,
      "tzr" : "Africa/Tripoli",
      "timezone"  : "1",
      "country"  : "Libya",
      "region" : "TC1"
    },
    "SEL" : {
      "country_code" : "KR",
     "city" : "Seoul",
      "airport_name": "All airports",
     "airportcode" : "SEL",
      "cid" : 0,
      "latitude"  : "37.5583",
      "longitude"  : "126.7906",
      "sid" : 0,
      "cyid" : 0,
      "listing_display" : true,
      "dst_indicator" : "U",
      "outbound" : 0,
      "tzr" : "Asia/Seoul",
      "timezone"  : "9",
      "country"  : "Korea",
      "region" : "TC1"
    },
    "SEN" : {
      "country_code" : "GB",
     "city" : "Southend",
      "airport_name": "Southend",
     "airportcode" : "SEN",
      "cid" : 0,
      "latitude"  : "51.571389",
      "longitude"  : "0.695556",
      "sid" : 0,
      "cyid" : 0,
      "listing_display" : true,
      "dst_indicator" : "E",
      "outbound" : 150,
      "tzr" : "Europe/London",
      "timezone"  : "1",
      "country"  : "United Kingdom",
      "region" : "TC1"
    },
    "BDA" : {
      "country_code" : "BM",
     "city" : "Bermuda/hamilton",
      "airport_name": "Bermuda",
     "airportcode" : "BDA",
      "cid" : 0,
      "latitude"  : "32.3667",
      "longitude"  : "-64.6833",
      "sid" : 0,
      "cyid" : 0,
      "listing_display" : true,
      "dst_indicator" : "U",
      "outbound" : 196,
      "tzr" : "Atlantic/Bermuda",
      "timezone"  : "-3",
      "country"  : "Bermuda",
      "region" : "TC1"
    },
    "BDB" : {
      "country_code" : "AU",
     "city" : "Bundaberg",
      "airport_name": "Bundaberg",
     "airportcode" : "BDB",
      "cid" : 0,
      "latitude"  : "-24.903889",
      "longitude"  : "152.318611",
      "sid" : 0,
      "cyid" : 0,
      "listing_display" : true,
      "dst_indicator" : "O",
      "outbound" : 38,
      "tzr" : "Australia/Brisbane",
      "timezone"  : "10",
      "country"  : "Australia",
      "region" : "TC1"
    },
    "SEU" : {
      "country_code" : "KE",
     "city" : "Seronera",
      "airport_name": "Seronera",
     "airportcode" : "SEU",
      "cid" : 0,
      "latitude"  : "-2.458056",
      "longitude"  : "34.8225",
      "sid" : 0,
      "cyid" : 0,
      "listing_display" : true,
      "dst_indicator" : "U",
      "outbound" : 0,
      "tzr" : "Africa/Dar_es_Salaam",
      "timezone"  : "3",
      "country"  : "Kenya",
      "region" : "TC1"
    },
    "BDD" : {
      "country_code" : "AU",
     "city" : "Badu Island",
      "airport_name": "Badu Island",
     "airportcode" : "BDD",
      "cid" : 0,
      "latitude"  : "-10.15",
      "longitude"  : "141.175",
      "sid" : 0,
      "cyid" : 0,
      "listing_display" : true,
      "dst_indicator" : "O",
      "outbound" : 0,
      "tzr" : "Australia/Brisbane",
      "timezone"  : "9",
      "country"  : "Australia",
      "region" : "TC1"
    },
    "BDH" : {
      "country_code" : "IR",
     "city" : "Bandar Lengeh",
      "airport_name": "Bandar Lengeh",
     "airportcode" : "BDH",
      "cid" : 0,
      "latitude"  : "26.532",
      "longitude"  : "54.824847",
      "sid" : 0,
      "cyid" : 0,
      "listing_display" : true,
      "dst_indicator" : "E",
      "outbound" : 2,
      "tzr" : "Asia/Tehran",
      "timezone"  : "4",
      "country"  : "Iran",
      "region" : "TC1"
    },
    "BDJ" : {
      "country_code" : "ID",
     "city" : "Banjarmasin",
      "airport_name": "Syamsudin Noor",
     "airportcode" : "BDJ",
      "cid" : 0,
      "latitude"  : "-3.442356",
      "longitude"  : "114.762553",
      "sid" : 0,
      "cyid" : 0,
      "listing_display" : true,
      "dst_indicator" : "U",
      "outbound" : 57,
      "tzr" : "Asia/Makassar",
      "timezone"  : "8",
      "country"  : "Indonesia",
      "region" : "TC1"
    },
    "JTR" : {
      "country_code" : "GR",
     "city" : "Thira",
      "airport_name": "Santorini",
     "airportcode" : "JTR",
      "cid" : 0,
      "latitude"  : "36.4",
      "longitude"  : "25.4833",
      "sid" : 0,
      "cyid" : 0,
      "listing_display" : true,
      "dst_indicator" : "E",
      "outbound" : 116,
      "tzr" : "Europe/Athens",
      "timezone"  : "3",
      "country"  : "Greece",
      "region" : "TC1"
    },
    "SEZ" : {
      "country_code" : "SC",
     "city" : "Mahe Island",
      "airport_name": "SEZ International Airport",
     "airportcode" : "SEZ",
      "cid" : 0,
      "latitude"  : "-4.6667",
      "longitude"  : "55.4667",
      "sid" : 0,
      "cyid" : 0,
      "listing_display" : true,
      "dst_indicator" : "U",
      "outbound" : 168,
      "tzr" : "Indian/Mahe",
      "timezone"  : "4",
      "country"  : "Seychelles",
      "region" : "TC1"
    },
    "BDL" : {
      "country_code" : "US",
     "city" : "Windsor Locks",
      "airport_name": "Bradley",
     "airportcode" : "BDL",
      "cid" : 0,
      "latitude"  : "41.9333",
      "longitude"  : "-72.6861",
      "sid" : 0,
      "cyid" : 0,
      "listing_display" : true,
      "dst_indicator" : "A",
      "outbound" : 5320,
      "tzr" : "America/New_York",
      "timezone"  : "-4",
      "country"  : "United States",
      "region" : "TC1"
    },
    "BDO" : {
      "country_code" : "ID",
     "city" : "Bandung",
      "airport_name": "Husein Sastranegara",
     "airportcode" : "BDO",
      "cid" : 0,
      "latitude"  : "-6.900625",
      "longitude"  : "107.576294",
      "sid" : 0,
      "cyid" : 0,
      "listing_display" : true,
      "dst_indicator" : "U",
      "outbound" : 59,
      "tzr" : "Asia/Jakarta",
      "timezone"  : "7",
      "country"  : "Indonesia",
      "region" : "TC1"
    },
    "BDN" : {
      "country_code" : "PK",
     "city" : "Talhar",
      "airport_name": "Talhar",
     "airportcode" : "BDN",
      "cid" : 0,
      "latitude"  : "24.841519",
      "longitude"  : "68.838408",
      "sid" : 0,
      "cyid" : 0,
      "listing_display" : true,
      "dst_indicator" : "U",
      "outbound" : 0,
      "tzr" : "Asia/Karachi",
      "timezone"  : "5",
      "country"  : "Pakistan",
      "region" : "TC1"
    },
    "BDQ" : {
      "country_code" : "IN",
     "city" : "Vadodara",
      "airport_name": "Vadodara",
     "airportcode" : "BDQ",
      "cid" : 0,
      "latitude"  : "22.3365",
      "longitude"  : "73.2265",
      "sid" : 0,
      "cyid" : 0,
      "listing_display" : true,
      "dst_indicator" : "N",
      "outbound" : 95,
      "tzr" : "Asia/Kolkata",
      "timezone"  : "5.5",
      "country"  : "India",
      "region" : "TC1"
    },
    "JTY" : {
      "country_code" : "GR",
     "city" : "Astypalaia",
      "airport_name": "Astypalaia",
     "airportcode" : "JTY",
      "cid" : 0,
      "latitude"  : "36.579886",
      "longitude"  : "26.375822",
      "sid" : 0,
      "cyid" : 0,
      "listing_display" : true,
      "dst_indicator" : "E",
      "outbound" : 12,
      "tzr" : "Europe/Athens",
      "timezone"  : "2",
      "country"  : "Greece",
      "region" : "TC1"
    },
    "SFB" : {
      "country_code" : "US",
     "city" : "Sanford",
      "airport_name": "Orlando Sanford",
     "airportcode" : "SFB",
      "cid" : 0,
      "latitude"  : "28.7833",
      "longitude"  : "-81.25",
      "sid" : 0,
      "cyid" : 0,
      "listing_display" : true,
      "dst_indicator" : "A",
      "outbound" : 99,
      "tzr" : "America/New_York",
      "timezone"  : "-4",
      "country"  : "United States",
      "region" : "TC1"
    },
    "SFA" : {
      "country_code" : "TN",
     "city" : "Sfax",
      "airport_name": "Thyna",
     "airportcode" : "SFA",
      "cid" : 0,
      "latitude"  : "34.717953",
      "longitude"  : "10.690972",
      "sid" : 0,
      "cyid" : 0,
      "listing_display" : true,
      "dst_indicator" : "E",
      "outbound" : 46,
      "tzr" : "Africa/Tunis",
      "timezone"  : "1",
      "country"  : "Tunisia",
      "region" : "TC1"
    },
    "BDS" : {
      "country_code" : "IT",
     "city" : "Brindisi",
      "airport_name": "Casale",
     "airportcode" : "BDS",
      "cid" : 0,
      "latitude"  : "40.657633",
      "longitude"  : "17.947033",
      "sid" : 0,
      "cyid" : 0,
      "listing_display" : true,
      "dst_indicator" : "E",
      "outbound" : 500,
      "tzr" : "Europe/Rome",
      "timezone"  : "1",
      "country"  : "Italy",
      "region" : "TC1"
    },
    "SFD" : {
      "country_code" : "VE",
     "city" : "San Fernando De Apure",
      "airport_name": "San Fernando De Apure",
     "airportcode" : "SFD",
      "cid" : 0,
      "latitude"  : "7.883317",
      "longitude"  : "-67.444025",
      "sid" : 0,
      "cyid" : 0,
      "listing_display" : true,
      "dst_indicator" : "U",
      "outbound" : 0,
      "tzr" : "America/Caracas",
      "timezone"  : "-4",
      "country"  : "Venezuela",
      "region" : "TC1"
    },
    "BDR" : {
      "country_code" : "US",
     "city" : "Stratford",
      "airport_name": "Igor I Sikorsky Mem",
     "airportcode" : "BDR",
      "cid" : 0,
      "latitude"  : "41.163472",
      "longitude"  : "-73.126167",
      "sid" : 0,
      "cyid" : 0,
      "listing_display" : true,
      "dst_indicator" : "A",
      "outbound" : 0,
      "tzr" : "America/New_York",
      "timezone"  : "-5",
      "country"  : "United States",
      "region" : "TC1"
    },
    "BDU" : {
      "country_code" : "NO",
     "city" : "Bardufoss",
      "airport_name": "Bardufoss",
     "airportcode" : "BDU",
      "cid" : 0,
      "latitude"  : "69.055758",
      "longitude"  : "18.540356",
      "sid" : 0,
      "cyid" : 0,
      "listing_display" : true,
      "dst_indicator" : "E",
      "outbound" : 33,
      "tzr" : "Europe/Oslo",
      "timezone"  : "1",
      "country"  : "Norway",
      "region" : "TC1"
    },
    "SFF" : {
      "country_code" : "US",
     "city" : "Spokane",
      "airport_name": "Felts Fld",
     "airportcode" : "SFF",
      "cid" : 0,
      "latitude"  : "47.682819",
      "longitude"  : "-117.322558",
      "sid" : 0,
      "cyid" : 0,
      "listing_display" : true,
      "dst_indicator" : "A",
      "outbound" : 0,
      "tzr" : "America/Los_Angeles",
      "timezone"  : "-8",
      "country"  : "United States",
      "region" : "TC1"
    },
    "BDT" : {
      "country_code" : "CG",
     "city" : "Gbadolite",
      "airport_name": "Gbadolite",
     "airportcode" : "BDT",
      "cid" : 0,
      "latitude"  : "4.253206",
      "longitude"  : "20.975283",
      "sid" : 0,
      "cyid" : 0,
      "listing_display" : true,
      "dst_indicator" : "N",
      "outbound" : 0,
      "tzr" : "Africa/Kinshasa",
      "timezone"  : "1",
      "country"  : "Congo (kinshasa)",
      "region" : "TC1"
    },
    "SFE" : {
      "country_code" : "PH",
     "city" : "San Fernando",
      "airport_name": "San Fernando",
     "airportcode" : "SFE",
      "cid" : 0,
      "latitude"  : "16.595589",
      "longitude"  : "120.303219",
      "sid" : 0,
      "cyid" : 0,
      "listing_display" : true,
      "dst_indicator" : "U",
      "outbound" : 0,
      "tzr" : "Asia/Manila",
      "timezone"  : "8",
      "country"  : "Philippines",
      "region" : "TC1"
    },
    "SFG" : {
      "country_code" : "GP",
     "city" : "St. Martin",
      "airport_name": "Grand Case",
     "airportcode" : "SFG",
      "cid" : 0,
      "latitude"  : "18.099914",
      "longitude"  : "-63.047197",
      "sid" : 0,
      "cyid" : 0,
      "listing_display" : true,
      "dst_indicator" : "U",
      "outbound" : 94,
      "tzr" : "America/Marigot",
      "timezone"  : "-4",
      "country"  : "Guadeloupe",
      "region" : "TC1"
    },
    "JUB" : {
      "country_code" : "SD",
     "city" : "Juba",
      "airport_name": "Juba",
     "airportcode" : "JUB",
      "cid" : 0,
      "latitude"  : "4.872006",
      "longitude"  : "31.601117",
      "sid" : 0,
      "cyid" : 0,
      "listing_display" : true,
      "dst_indicator" : "U",
      "outbound" : 71,
      "tzr" : "Africa/Juba",
      "timezone"  : "2",
      "country"  : "Sudan",
      "region" : "TC1"
    },
    "SFJ" : {
      "country_code" : "GL",
     "city" : "Sondrestrom",
      "airport_name": "Sondre Stromfjord",
     "airportcode" : "SFJ",
      "cid" : 0,
      "latitude"  : "67.016969",
      "longitude"  : "-50.689325",
      "sid" : 0,
      "cyid" : 0,
      "listing_display" : true,
      "dst_indicator" : "E",
      "outbound" : 457,
      "tzr" : "America/Godthab",
      "timezone"  : "-3",
      "country"  : "Greenland",
      "region" : "TC1"
    },
    "SFL" : {
      "country_code" : "Cape Verde",
     "city" : "\"sao Filipe",
      "airport_name": "Sao Filipe",
     "airportcode" : "SFL",
      "cid" : 0,
      "latitude"  : "14.885",
      "longitude"  : "-24.48",
      "sid" : 0,
      "cyid" : 0,
      "listing_display" : true,
      "dst_indicator" : "U",
      "outbound" : 42,
      "tzr" : "Atlantic/Cape_Verde",
      "timezone"  : "-1",
      "country"  : " Fogo Island\"",
      "region" : "TC1"
    },
    "SFN" : {
      "country_code" : "AR",
     "city" : "Santa Fe",
      "airport_name": "Sauce Viejo",
     "airportcode" : "SFN",
      "cid" : 0,
      "latitude"  : "-31.711666",
      "longitude"  : "-60.811668",
      "sid" : 0,
      "cyid" : 0,
      "listing_display" : true,
      "dst_indicator" : "S",
      "outbound" : 6,
      "tzr" : "America/Argentina/Cordoba",
      "timezone"  : "-3",
      "country"  : "Argentina",
      "region" : "TC1"
    },
    "SFO" : {
      "country_code" : "US",
     "city" : "San Francisco",
      "airport_name": "San Francisco",
     "airportcode" : "SFO",
      "cid" : 0,
      "latitude"  : "37.6167",
      "longitude"  : "-122.3833",
      "sid" : 0,
      "cyid" : 0,
      "listing_display" : true,
      "dst_indicator" : "A",
      "outbound" : 51694,
      "tzr" : "America/Los_Angeles",
      "timezone"  : "-7",
      "country"  : "United States",
      "region" : "TC1"
    },
    "BEB" : {
      "country_code" : "GB",
     "city" : "Benbecula",
      "airport_name": "Benbecula",
     "airportcode" : "BEB",
      "cid" : 0,
      "latitude"  : "57.481111",
      "longitude"  : "-7.362778",
      "sid" : 0,
      "cyid" : 0,
      "listing_display" : true,
      "dst_indicator" : "E",
      "outbound" : 126,
      "tzr" : "Europe/London",
      "timezone"  : "1",
      "country"  : "United Kingdom",
      "region" : "TC1"
    },
    "JUJ" : {
      "country_code" : "AR",
     "city" : "Jujuy",
      "airport_name": "El Cadillal",
     "airportcode" : "JUJ",
      "cid" : 0,
      "latitude"  : "-24.2333",
      "longitude"  : "-65.2667",
      "sid" : 0,
      "cyid" : 0,
      "listing_display" : true,
      "dst_indicator" : "S",
      "outbound" : 10,
      "tzr" : "America/Argentina/Jujuy",
      "timezone"  : "-3",
      "country"  : "Argentina",
      "region" : "TC1"
    },
    "JUI" : {
      "country_code" : "DE",
     "city" : "Juist",
      "airport_name": "Verkehrslandeplatz Juist",
     "airportcode" : "JUI",
      "cid" : 0,
      "latitude"  : "53.681572",
      "longitude"  : "7.055731",
      "sid" : 0,
      "cyid" : 0,
      "listing_display" : true,
      "dst_indicator" : "E",
      "outbound" : 0,
      "tzr" : "Europe/Berlin",
      "timezone"  : "1",
      "country"  : "Germany",
      "region" : "TC1"
    },
    "SFQ" : {
      "country_code" : "TR",
     "city" : "Sanliurfa",
      "airport_name": "All airports",
     "airportcode" : "SFQ",
      "cid" : 0,
      "latitude"  : "38.85",
      "longitude"  : "37.085278 ",
      "sid" : 0,
      "cyid" : 0,
      "listing_display" : true,
      "dst_indicator" : "E",
      "outbound" : 0,
      "tzr" : "Europe/Istanbul",
      "timezone"  : "2",
      "country"  : "Turkey",
      "region" : "TC1"
    },
    "BED" : {
      "country_code" : "US",
     "city" : "Bedford/hanscom",
      "airport_name": "Bedford",
     "airportcode" : "BED",
      "cid" : 0,
      "latitude"  : "42.4667",
      "longitude"  : "-71.2833",
      "sid" : 0,
      "cyid" : 0,
      "listing_display" : true,
      "dst_indicator" : "A",
      "outbound" : 1,
      "tzr" : "America/New_York",
      "timezone"  : "-4",
      "country"  : "United States",
      "region" : "TC1"
    },
    "JUL" : {
      "country_code" : "PE",
     "city" : "Juliaca",
      "airport_name": "Juliaca",
     "airportcode" : "JUL",
      "cid" : 0,
      "latitude"  : "-15.4833",
      "longitude"  : "-70.15",
      "sid" : 0,
      "cyid" : 0,
      "listing_display" : true,
      "dst_indicator" : "U",
      "outbound" : 335,
      "tzr" : "America/Lima",
      "timezone"  : "-5",
      "country"  : "Peru",
      "region" : "TC1"
    },
    "SFT" : {
      "country_code" : "SE",
     "city" : "Skelleftea",
      "airport_name": "Skelleftea",
     "airportcode" : "SFT",
      "cid" : 0,
      "latitude"  : "64.624772",
      "longitude"  : "21.076892",
      "sid" : 0,
      "cyid" : 0,
      "listing_display" : true,
      "dst_indicator" : "E",
      "outbound" : 276,
      "tzr" : "Europe/Stockholm",
      "timezone"  : "1",
      "country"  : "Sweden",
      "region" : "TC1"
    },
    "BEF" : {
      "country_code" : "NI",
     "city" : "Bluefields",
      "airport_name": "Bluefields",
     "airportcode" : "BEF",
      "cid" : 0,
      "latitude"  : "11.990961",
      "longitude"  : "-83.774086",
      "sid" : 0,
      "cyid" : 0,
      "listing_display" : true,
      "dst_indicator" : "U",
      "outbound" : 0,
      "tzr" : "America/Managua",
      "timezone"  : "-6",
      "country"  : "Nicaragua",
      "region" : "TC1"
    },
    "JUM" : {
      "country_code" : "NP",
     "city" : "Jumla",
      "airport_name": "Jumla",
     "airportcode" : "JUM",
      "cid" : 0,
      "latitude"  : "29.274167",
      "longitude"  : "82.193333",
      "sid" : 0,
      "cyid" : 0,
      "listing_display" : true,
      "dst_indicator" : "N",
      "outbound" : 1,
      "tzr" : "Asia/Kathmandu",
      "timezone"  : "5.75",
      "country"  : "Nepal",
      "region" : "TC1"
    },
    "BEG" : {
      "country_code" : "CS",
     "city" : "Belgrade",
      "airport_name": "Belgrade Beograd",
     "airportcode" : "BEG",
      "cid" : 0,
      "latitude"  : "44.8183",
      "longitude"  : "20.2992",
      "sid" : 0,
      "cyid" : 0,
      "listing_display" : true,
      "dst_indicator" : "E",
      "outbound" : 1064,
      "tzr" : "Europe/Belgrade",
      "timezone"  : "2",
      "country"  : "Serbia",
      "region" : "TC1"
    },
    "BEJ" : {
      "country_code" : "ID",
     "city" : "Tanjung Redep-borneo Island",
      "airport_name": "Barau(Kalimaru)",
     "airportcode" : "BEJ",
      "cid" : 0,
      "latitude"  : "2.155497",
      "longitude"  : "117.432256",
      "sid" : 0,
      "cyid" : 0,
      "listing_display" : true,
      "dst_indicator" : "U",
      "outbound" : 18,
      "tzr" : "Asia/Makassar",
      "timezone"  : "8",
      "country"  : "Indonesia",
      "region" : "TC1"
    },
    "BEL" : {
      "country_code" : "BR",
     "city" : "Belem",
      "airport_name": "Val De Cans",
     "airportcode" : "BEL",
      "cid" : 0,
      "latitude"  : "-1.4167",
      "longitude"  : "-48.45",
      "sid" : 0,
      "cyid" : 0,
      "listing_display" : true,
      "dst_indicator" : "U",
      "outbound" : 603,
      "tzr" : "America/Belem",
      "timezone"  : "-3",
      "country"  : "Brazil",
      "region" : "TC1"
    },
    "BEN" : {
      "country_code" : "LY",
     "city" : "Benghazi",
      "airport_name": "Benina",
     "airportcode" : "BEN",
      "cid" : 0,
      "latitude"  : "32.096786",
      "longitude"  : "20.269472",
      "sid" : 0,
      "cyid" : 0,
      "listing_display" : true,
      "dst_indicator" : "N",
      "outbound" : 119,
      "tzr" : "Africa/Tripoli",
      "timezone"  : "1",
      "country"  : "Libya",
      "region" : "TC1"
    },
    "BER" : {
      "country_code" : "DE",
     "city" : "Berlin",
      "airport_name": "All airports",
     "airportcode" : "BER",
      "cid" : 0,
      "latitude"  : "52.525",
      "longitude"  : "13.3583",
      "sid" : 0,
      "cyid" : 0,
      "listing_display" : true,
      "dst_indicator" : "E",
      "outbound" : 353,
      "tzr" : "Europe/Berlin",
      "timezone"  : "1",
      "country"  : "Germany",
      "region" : "TC1"
    },
    "JUZ" : {
      "country_code" : "CN",
     "city" : "Quzhou",
      "airport_name": "Quzhou",
     "airportcode" : "JUZ",
      "cid" : 0,
      "latitude"  : "28.9658",
      "longitude"  : "118.899",
      "sid" : 0,
      "cyid" : 0,
      "listing_display" : true,
      "dst_indicator" : "U",
      "outbound" : 8,
      "tzr" : "Asia/Shanghai",
      "timezone"  : "8",
      "country"  : "China",
      "region" : "TC1"
    },
    "SGC" : {
      "country_code" : "RU",
     "city" : "Surgut",
      "airport_name": "Surgut",
     "airportcode" : "SGC",
      "cid" : 0,
      "latitude"  : "61.343694",
      "longitude"  : "73.401842",
      "sid" : 0,
      "cyid" : 0,
      "listing_display" : true,
      "dst_indicator" : "E",
      "outbound" : 94,
      "tzr" : "Asia/Yekaterinburg",
      "timezone"  : "5",
      "country"  : "Russia",
      "region" : "TC1"
    },
    "BET" : {
      "country_code" : "US",
     "city" : "Bethel",
      "airport_name": "Bethel",
     "airportcode" : "BET",
      "cid" : 0,
      "latitude"  : "60.7833",
      "longitude"  : "-161.8333",
      "sid" : 0,
      "cyid" : 0,
      "listing_display" : true,
      "dst_indicator" : "A",
      "outbound" : 434,
      "tzr" : "America/Anchorage",
      "timezone"  : "-8",
      "country"  : "United States",
      "region" : "TC1"
    },
    "BES" : {
      "country_code" : "FR",
     "city" : "Brest",
      "airport_name": "Guipavas",
     "airportcode" : "BES",
      "cid" : 0,
      "latitude"  : "48.45",
      "longitude"  : "-4.4167",
      "sid" : 0,
      "cyid" : 0,
      "listing_display" : true,
      "dst_indicator" : "E",
      "outbound" : 161,
      "tzr" : "Europe/Paris",
      "timezone"  : "2",
      "country"  : "France",
      "region" : "TC1"
    },
    "SGD" : {
      "country_code" : "DK",
     "city" : "Sonderborg",
      "airport_name": "Sonderborg",
     "airportcode" : "SGD",
      "cid" : 0,
      "latitude"  : "54.95",
      "longitude"  : "9.7667",
      "sid" : 0,
      "cyid" : 0,
      "listing_display" : true,
      "dst_indicator" : "E",
      "outbound" : 0,
      "tzr" : "Europe/Copenhagen",
      "timezone"  : "2",
      "country"  : "Denmark",
      "region" : "TC1"
    },
    "BEU" : {
      "country_code" : "AU",
     "city" : "Bedourie",
      "airport_name": "Bedourie",
     "airportcode" : "BEU",
      "cid" : 0,
      "latitude"  : "-24.3461",
      "longitude"  : "139.46",
      "sid" : 0,
      "cyid" : 0,
      "listing_display" : true,
      "dst_indicator" : "O",
      "outbound" : 8,
      "tzr" : "Australia/Brisbane",
      "timezone"  : "10",
      "country"  : "Australia",
      "region" : "TC1"
    },
    "SGF" : {
      "country_code" : "US",
     "city" : "Springfield",
      "airport_name": "Springfield Branson Regional",
     "airportcode" : "SGF",
      "cid" : 0,
      "latitude"  : "37.25",
      "longitude"  : "-93.3833",
      "sid" : 0,
      "cyid" : 0,
      "listing_display" : true,
      "dst_indicator" : "A",
      "outbound" : 769,
      "tzr" : "America/Chicago",
      "timezone"  : "-5",
      "country"  : "United States",
      "region" : "TC1"
    },
    "JVA" : {
      "country_code" : "MG",
     "city" : "Ankavandra",
      "airport_name": "Ankavandra",
     "airportcode" : "JVA",
      "cid" : 0,
      "latitude"  : "-18.8",
      "longitude"  : "45.283",
      "sid" : 0,
      "cyid" : 0,
      "listing_display" : true,
      "dst_indicator" : "U",
      "outbound" : 0,
      "tzr" : "Indian/Antananarivo",
      "timezone"  : "3",
      "country"  : "Madagascar",
      "region" : "TC1"
    },
    "BEW" : {
      "country_code" : "MZ",
     "city" : "Beira",
      "airport_name": "Beira",
     "airportcode" : "BEW",
      "cid" : 0,
      "latitude"  : "-19.796419",
      "longitude"  : "34.907556",
      "sid" : 0,
      "cyid" : 0,
      "listing_display" : true,
      "dst_indicator" : "U",
      "outbound" : 46,
      "tzr" : "Africa/Maputo",
      "timezone"  : "2",
      "country"  : "Mozambique",
      "region" : "TC1"
    },
    "BEY" : {
      "country_code" : "LB",
     "city" : "Beirut",
      "airport_name": "Beirut",
     "airportcode" : "BEY",
      "cid" : 0,
      "latitude"  : "33.8333",
      "longitude"  : "35.4833",
      "sid" : 0,
      "cyid" : 0,
      "listing_display" : true,
      "dst_indicator" : "E",
      "outbound" : 1181,
      "tzr" : "Asia/Beirut",
      "timezone"  : "3",
      "country"  : "Lebanon",
      "region" : "TC1"
    },
    "SGO" : {
      "country_code" : "AU",
     "city" : "St George",
      "airport_name": "St George",
     "airportcode" : "SGO",
      "cid" : 0,
      "latitude"  : "-28.0497",
      "longitude"  : "148.595",
      "sid" : 0,
      "cyid" : 0,
      "listing_display" : true,
      "dst_indicator" : "O",
      "outbound" : 4,
      "tzr" : "Australia/Brisbane",
      "timezone"  : "10",
      "country"  : "Australia",
      "region" : "TC1"
    },
    "SGN" : {
      "country_code" : "VN",
     "city" : "Ho Chi Minh City",
      "airport_name": "Tan Son Nhut",
     "airportcode" : "SGN",
      "cid" : 0,
      "latitude"  : "10.8189",
      "longitude"  : "106.6647",
      "sid" : 0,
      "cyid" : 0,
      "listing_display" : true,
      "dst_indicator" : "U",
      "outbound" : 1084,
      "tzr" : "Asia/Ho_Chi_Minh",
      "timezone"  : "7",
      "country"  : "Vietnam",
      "region" : "TC1"
    },
    "SGR" : {
      "country_code" : "US",
     "city" : "Sugar Land",
      "airport_name": "Sugar Land Regional",
     "airportcode" : "SGR",
      "cid" : 0,
      "latitude"  : "29.62225",
      "longitude"  : "-95.656528",
      "sid" : 0,
      "cyid" : 0,
      "listing_display" : true,
      "dst_indicator" : "A",
      "outbound" : 0,
      "tzr" : "America/Chicago",
      "timezone"  : "-6",
      "country"  : "United States",
      "region" : "TC1"
    },
    "SGU" : {
      "country_code" : "US",
     "city" : "Saint George",
      "airport_name": "Saint George Municipal",
     "airportcode" : "SGU",
      "cid" : 0,
      "latitude"  : "37.0833",
      "longitude"  : "-113.6",
      "sid" : 0,
      "cyid" : 0,
      "listing_display" : true,
      "dst_indicator" : "A",
      "outbound" : 54,
      "tzr" : "America/Denver",
      "timezone"  : "-6",
      "country"  : "United States",
      "region" : "TC1"
    },
    "BFD" : {
      "country_code" : "US",
     "city" : "Bradford",
      "airport_name": "Bradford Regional",
     "airportcode" : "BFD",
      "cid" : 0,
      "latitude"  : "41.8",
      "longitude"  : "-78.6333",
      "sid" : 0,
      "cyid" : 0,
      "listing_display" : true,
      "dst_indicator" : "A",
      "outbound" : 10,
      "tzr" : "America/New_York",
      "timezone"  : "-4",
      "country"  : "United States",
      "region" : "TC1"
    },
    "BFF" : {
      "country_code" : "US",
     "city" : "Scottsbluff",
      "airport_name": "Scottsbluff Municipal",
     "airportcode" : "BFF",
      "cid" : 0,
      "latitude"  : "41.8667",
      "longitude"  : "-103.6",
      "sid" : 0,
      "cyid" : 0,
      "listing_display" : true,
      "dst_indicator" : "A",
      "outbound" : 24,
      "tzr" : "America/Denver",
      "timezone"  : "-6",
      "country"  : "United States",
      "region" : "TC1"
    },
    "SGY" : {
      "country_code" : "US",
     "city" : "Skagway",
      "airport_name": "Skagway",
     "airportcode" : "SGY",
      "cid" : 0,
      "latitude"  : "59.4601",
      "longitude"  : "-135.316",
      "sid" : 0,
      "cyid" : 0,
      "listing_display" : true,
      "dst_indicator" : "A",
      "outbound" : 23,
      "tzr" : "America/Juneau",
      "timezone"  : "-9",
      "country"  : "United States",
      "region" : "TC1"
    },
    "BFJ" : {
      "country_code" : "FJ",
     "city" : "Ba",
      "airport_name": "Ba",
     "airportcode" : "BFJ",
      "cid" : 0,
      "latitude"  : "-17.55",
      "longitude"  : "177.6833",
      "sid" : 0,
      "cyid" : 0,
      "listing_display" : false,
      "dst_indicator" : "U",
      "outbound" : 0,
      "tzr" : "Asia/Chongqing",
      "timezone"  : "12",
      "country"  : "Fiji",
      "region" : "TC1"
    },
    "BFL" : {
      "country_code" : "US",
     "city" : "Bakersfield",
      "airport_name": "Meadows Field",
     "airportcode" : "BFL",
      "cid" : 0,
      "latitude"  : "35.4333",
      "longitude"  : "-119.0333",
      "sid" : 0,
      "cyid" : 0,
      "listing_display" : true,
      "dst_indicator" : "A",
      "outbound" : 311,
      "tzr" : "America/Los_Angeles",
      "timezone"  : "-7",
      "country"  : "United States",
      "region" : "TC1"
    },
    "BFO" : {
      "country_code" : "ZW",
     "city" : "Chiredzi",
      "airport_name": "Buffalo Range",
     "airportcode" : "BFO",
      "cid" : 0,
      "latitude"  : "-21.008083",
      "longitude"  : "31.57855",
      "sid" : 0,
      "cyid" : 0,
      "listing_display" : true,
      "dst_indicator" : "U",
      "outbound" : 0,
      "tzr" : "Africa/Harare",
      "timezone"  : "2",
      "country"  : "Zimbabwe",
      "region" : "TC1"
    },
    "BFN" : {
      "country_code" : "ZA",
     "city" : "Bloemfontein",
      "airport_name": "Bloemfontein",
     "airportcode" : "BFN",
      "cid" : 0,
      "latitude"  : "-29.1",
      "longitude"  : "26.1833",
      "sid" : 0,
      "cyid" : 0,
      "listing_display" : true,
      "dst_indicator" : "U",
      "outbound" : 80,
      "tzr" : "Africa/Johannesburg",
      "timezone"  : "2",
      "country"  : "South Africa",
      "region" : "TC1"
    },
    "SHB" : {
      "country_code" : "JP",
     "city" : "Nakashibetsu",
      "airport_name": "Nakashibetsu",
     "airportcode" : "SHB",
      "cid" : 0,
      "latitude"  : "43.5775",
      "longitude"  : "144.96",
      "sid" : 0,
      "cyid" : 0,
      "listing_display" : true,
      "dst_indicator" : "U",
      "outbound" : 22,
      "tzr" : "Asia/Tokyo",
      "timezone"  : "9",
      "country"  : "Japan",
      "region" : "TC1"
    },
    "SHA" : {
      "country_code" : "CN",
     "city" : "Shanghai",
      "airport_name": "Hongqiao",
     "airportcode" : "SHA",
      "cid" : 0,
      "latitude"  : "31.3333",
      "longitude"  : "121.5",
      "sid" : 0,
      "cyid" : 0,
      "listing_display" : true,
      "dst_indicator" : "U",
      "outbound" : 1308,
      "tzr" : "Asia/Shanghai",
      "timezone"  : "8",
      "country"  : "China",
      "region" : "TC1"
    },
    "BFS" : {
      "country_code" : "GB",
     "city" : "Belfast",
      "airport_name": "Belfast",
     "airportcode" : "BFS",
      "cid" : 0,
      "latitude"  : "54.5833",
      "longitude"  : "-5.9167",
      "sid" : 0,
      "cyid" : 0,
      "listing_display" : true,
      "dst_indicator" : "E",
      "outbound" : 934,
      "tzr" : "Europe/London",
      "timezone"  : "1",
      "country"  : "United Kingdom",
      "region" : "TC1"
    },
    "SHC" : {
      "country_code" : "ET",
     "city" : "Indaselassie",
      "airport_name": "Indaselassie",
     "airportcode" : "SHC",
      "cid" : 0,
      "latitude"  : "14.0833",
      "longitude"  : "38.2833",
      "sid" : 0,
      "cyid" : 0,
      "listing_display" : true,
      "dst_indicator" : "U",
      "outbound" : 2,
      "tzr" : "Africa/Addis_Ababa",
      "timezone"  : "3",
      "country"  : "Ethiopia",
      "region" : "TC1"
    },
    "SHE" : {
      "country_code" : "CN",
     "city" : "Shenyang",
      "airport_name": "Shenyang Taoxian",
     "airportcode" : "SHE",
      "cid" : 0,
      "latitude"  : "41.3824",
      "longitude"  : "123.2901",
      "sid" : 0,
      "cyid" : 0,
      "listing_display" : true,
      "dst_indicator" : "U",
      "outbound" : 737,
      "tzr" : "Asia/Harbin",
      "timezone"  : "8",
      "country"  : "China",
      "region" : "TC1"
    },
    "SHH" : {
      "country_code" : "US",
     "city" : "Shishmaref",
      "airport_name": "Shishmaref",
     "airportcode" : "SHH",
      "cid" : 0,
      "latitude"  : "66.2496",
      "longitude"  : "-166.089",
      "sid" : 0,
      "cyid" : 0,
      "listing_display" : true,
      "dst_indicator" : "A",
      "outbound" : 6,
      "tzr" : "America/Nome",
      "timezone"  : "-9",
      "country"  : "United States",
      "region" : "TC1"
    },
    "BFV" : {
      "country_code" : "TH",
     "city" : "Buri Ram",
      "airport_name": "Buri Ram",
     "airportcode" : "BFV",
      "cid" : 0,
      "latitude"  : "15.229539",
      "longitude"  : "103.253231",
      "sid" : 0,
      "cyid" : 0,
      "listing_display" : true,
      "dst_indicator" : "U",
      "outbound" : 1,
      "tzr" : "Asia/Bangkok",
      "timezone"  : "7",
      "country"  : "Thailand",
      "region" : "TC1"
    },
    "SHJ" : {
      "country_code" : "AE",
     "city" : "Sharjah",
      "airport_name": "Sharjah",
     "airportcode" : "SHJ",
      "cid" : 0,
      "latitude"  : "25.35",
      "longitude"  : "55.4",
      "sid" : 0,
      "cyid" : 0,
      "listing_display" : true,
      "dst_indicator" : "U",
      "outbound" : 202,
      "tzr" : "Asia/Dubai",
      "timezone"  : "4",
      "country"  : "United Arab Emirates",
      "region" : "TC1"
    },
    "JWA" : {
      "country_code" : "BW",
     "city" : "Jwaneng",
      "airport_name": "Jwaneng",
     "airportcode" : "JWA",
      "cid" : 0,
      "latitude"  : "-24.602333",
      "longitude"  : "24.690971",
      "sid" : 0,
      "cyid" : 0,
      "listing_display" : true,
      "dst_indicator" : "U",
      "outbound" : 0,
      "tzr" : "Africa/Gaborone",
      "timezone"  : "2",
      "country"  : "Botswana",
      "region" : "TC1"
    },
    "SHL" : {
      "country_code" : "IN",
     "city" : "Shillong",
      "airport_name": "Barapani",
     "airportcode" : "SHL",
      "cid" : 0,
      "latitude"  : "25.7034",
      "longitude"  : "91.9775",
      "sid" : 0,
      "cyid" : 0,
      "listing_display" : true,
      "dst_indicator" : "N",
      "outbound" : 8,
      "tzr" : "Asia/Kolkata",
      "timezone"  : "5.5",
      "country"  : "India",
      "region" : "TC1"
    },
    "SHM" : {
      "country_code" : "JP",
     "city" : "Nanki-shirahama",
      "airport_name": "Nanki Shirahama",
     "airportcode" : "SHM",
      "cid" : 0,
      "latitude"  : "33.662222",
      "longitude"  : "135.364444",
      "sid" : 0,
      "cyid" : 0,
      "listing_display" : true,
      "dst_indicator" : "U",
      "outbound" : 7,
      "tzr" : "Asia/Tokyo",
      "timezone"  : "9",
      "country"  : "Japan",
      "region" : "TC1"
    },
    "SHP" : {
      "country_code" : "CN",
     "city" : "Qinhuangdao",
      "airport_name": "Shanhaiguan",
     "airportcode" : "SHP",
      "cid" : 0,
      "latitude"  : "39.9681",
      "longitude"  : "119.731",
      "sid" : 0,
      "cyid" : 0,
      "listing_display" : true,
      "dst_indicator" : "N",
      "outbound" : 22,
      "tzr" : "Asia/Shanghai",
      "timezone"  : "8",
      "country"  : "China",
      "region" : "TC1"
    },
    "JWH" : {
      "country_code" : "US",
     "city" : "James Town",
      "airport_name": "Jamestown",
     "airportcode" : "JWH",
      "cid" : 0,
      "latitude"  : "42.1506",
      "longitude"  : "-79.2581",
      "sid" : 0,
      "cyid" : 0,
      "listing_display" : true,
      "dst_indicator" : "A",
      "outbound" : 0,
      "tzr" : "America/Chicago",
      "timezone"  : "-5",
      "country"  : "United States",
      "region" : "TC1"
    },
    "SHR" : {
      "country_code" : "US",
     "city" : "Sheridan",
      "airport_name": "Sheridan Cty",
     "airportcode" : "SHR",
      "cid" : 0,
      "latitude"  : "44.7667",
      "longitude"  : "-106.9667",
      "sid" : 0,
      "cyid" : 0,
      "listing_display" : true,
      "dst_indicator" : "A",
      "outbound" : 18,
      "tzr" : "America/Denver",
      "timezone"  : "-6",
      "country"  : "United States",
      "region" : "TC1"
    },
    "BGA" : {
      "country_code" : "CO",
     "city" : "Bucaramanga",
      "airport_name": "Palo Negro",
     "airportcode" : "BGA",
      "cid" : 0,
      "latitude"  : "7.1",
      "longitude"  : "-73.15",
      "sid" : 0,
      "cyid" : 0,
      "listing_display" : true,
      "dst_indicator" : "U",
      "outbound" : 148,
      "tzr" : "America/Bogota",
      "timezone"  : "-5",
      "country"  : "Colombia",
      "region" : "TC1"
    },
    "SHT" : {
      "country_code" : "AU",
     "city" : "Shepparton",
      "airport_name": "Shepparton",
     "airportcode" : "SHT",
      "cid" : 0,
      "latitude"  : "-36.4333",
      "longitude"  : "145.4",
      "sid" : 0,
      "cyid" : 0,
      "listing_display" : true,
      "dst_indicator" : "O",
      "outbound" : 0,
      "tzr" : "Australia/Melbourne",
      "timezone"  : "11",
      "country"  : "Australia",
      "region" : "TC1"
    },
    "BGC" : {
      "country_code" : "PT",
     "city" : "Braganca",
      "airport_name": "Braganca",
     "airportcode" : "BGC",
      "cid" : 0,
      "latitude"  : "41.8578",
      "longitude"  : "-6.707125",
      "sid" : 0,
      "cyid" : 0,
      "listing_display" : true,
      "dst_indicator" : "E",
      "outbound" : 6,
      "tzr" : "Europe/Lisbon",
      "timezone"  : "0",
      "country"  : "Portugal",
      "region" : "TC1"
    },
    "BGF" : {
      "country_code" : "CF",
     "city" : "Bangui",
      "airport_name": "Bangui",
     "airportcode" : "BGF",
      "cid" : 0,
      "latitude"  : "4.3833",
      "longitude"  : "18.5667",
      "sid" : 0,
      "cyid" : 0,
      "listing_display" : true,
      "dst_indicator" : "N",
      "outbound" : 58,
      "tzr" : "Africa/Bangui",
      "timezone"  : "1",
      "country"  : "Central African Republic",
      "region" : "TC1"
    },
    "SHV" : {
      "country_code" : "US",
     "city" : "Shreveport",
      "airport_name": "Shreveport Regional",
     "airportcode" : "SHV",
      "cid" : 0,
      "latitude"  : "32.45",
      "longitude"  : "-93.8167",
      "sid" : 0,
      "cyid" : 0,
      "listing_display" : true,
      "dst_indicator" : "A",
      "outbound" : 940,
      "tzr" : "America/Chicago",
      "timezone"  : "-5",
      "country"  : "United States",
      "region" : "TC1"
    },
    "SHW" : {
      "country_code" : "SA",
     "city" : "Sharurah",
      "airport_name": "Sharurah",
     "airportcode" : "SHW",
      "cid" : 0,
      "latitude"  : "17.466875",
      "longitude"  : "47.121431",
      "sid" : 0,
      "cyid" : 0,
      "listing_display" : true,
      "dst_indicator" : "U",
      "outbound" : 12,
      "tzr" : "Asia/Riyadh",
      "timezone"  : "3",
      "country"  : "Saudi Arabia",
      "region" : "TC1"
    },
    "BGI" : {
      "country_code" : "BB",
     "city" : "Bridge Town",
      "airport_name": "Grantley Adams",
     "airportcode" : "BGI",
      "cid" : 0,
      "latitude"  : "13.0667",
      "longitude"  : "-59.4833",
      "sid" : 0,
      "cyid" : 0,
      "listing_display" : true,
      "dst_indicator" : "U",
      "outbound" : 439,
      "tzr" : "America/Barbados",
      "timezone"  : "-4",
      "country"  : "Barbados",
      "region" : "TC1"
    },
    "SHY" : {
      "country_code" : "timezone" ,
     "city" : "Shinyanga",
      "airport_name": "Shinyanga",
     "airportcode" : "SHY",
      "cid" : 0,
      "latitude"  : "-3.667",
      "longitude"  : "33.417",
      "sid" : 0,
      "cyid" : 0,
      "listing_display" : true,
      "dst_indicator" : "U",
      "outbound" : 0,
      "tzr" : "Africa/Dar_es_Salaam",
      "timezone"  : "3",
      "country"  : "Tanzania",
      "region" : "TC1"
    },
    "BGM" : {
      "country_code" : "US",
     "city" : "Binghamton/endicott/johnson City",
      "airport_name": "Edwin A Link Field",
     "airportcode" : "BGM",
      "cid" : 0,
      "latitude"  : "42.2167",
      "longitude"  : "-75.9833",
      "sid" : 0,
      "cyid" : 0,
      "listing_display" : true,
      "dst_indicator" : "A",
      "outbound" : 175,
      "tzr" : "America/New_York",
      "timezone"  : "-4",
      "country"  : "United States",
      "region" : "TC1"
    },
    "BGO" : {
      "country_code" : "NO",
     "city" : "Bergen",
      "airport_name": "Flesland",
     "airportcode" : "BGO",
      "cid" : 0,
      "latitude"  : "60.3",
      "longitude"  : "5.2167",
      "sid" : 0,
      "cyid" : 0,
      "listing_display" : true,
      "dst_indicator" : "E",
      "outbound" : 3768,
      "tzr" : "Europe/Oslo",
      "timezone"  : "2",
      "country"  : "Norway",
      "region" : "TC1"
    },
    "BGR" : {
      "country_code" : "US",
     "city" : "Bangor",
      "airport_name": "Bangor",
     "airportcode" : "BGR",
      "cid" : 0,
      "latitude"  : "44.8",
      "longitude"  : "-68.8167",
      "sid" : 0,
      "cyid" : 0,
      "listing_display" : true,
      "dst_indicator" : "A",
      "outbound" : 234,
      "tzr" : "America/New_York",
      "timezone"  : "-4",
      "country"  : "United States",
      "region" : "TC1"
    },
    "SIC" : {
      "country_code" : "TR",
     "city" : "Sinop",
      "airport_name": "Sinop",
     "airportcode" : "SIC",
      "cid" : 0,
      "latitude"  : "42.0158",
      "longitude"  : "35.0664",
      "sid" : 0,
      "cyid" : 0,
      "listing_display" : true,
      "dst_indicator" : "E",
      "outbound" : 0,
      "tzr" : "America/Panama",
      "timezone"  : "2",
      "country"  : "Turkey",
      "region" : "TC1"
    },
    "SID" : {
      "country_code" : "CV",
     "city" : "Amilcar Cabral",
      "airport_name": "Amilcar Cabral",
     "airportcode" : "SID",
      "cid" : 0,
      "latitude"  : "16.741389",
      "longitude"  : "-22.949444",
      "sid" : 0,
      "cyid" : 0,
      "listing_display" : true,
      "dst_indicator" : "U",
      "outbound" : 233,
      "tzr" : "Atlantic/Cape_Verde",
      "timezone"  : "-1",
      "country"  : "Cape Verde",
      "region" : "TC1"
    },
    "SIG" : {
      "country_code" : "PR",
     "city" : "San Juan",
      "airport_name": "Fernando Luis Ribas Dominicci",
     "airportcode" : "SIG",
      "cid" : 0,
      "latitude"  : "18.456828",
      "longitude"  : "-66.098139",
      "sid" : 0,
      "cyid" : 0,
      "listing_display" : true,
      "dst_indicator" : "U",
      "outbound" : 0,
      "tzr" : "America/Puerto_Rico",
      "timezone"  : "-4",
      "country"  : "Puerto Rico",
      "region" : "TC1"
    },
    "SIF" : {
      "country_code" : "NP",
     "city" : "Simara",
      "airport_name": "Simara",
     "airportcode" : "SIF",
      "cid" : 0,
      "latitude"  : "27.159456",
      "longitude"  : "84.980122",
      "sid" : 0,
      "cyid" : 0,
      "listing_display" : true,
      "dst_indicator" : "N",
      "outbound" : 7,
      "tzr" : "Asia/Kathmandu",
      "timezone"  : "5.75",
      "country"  : "Nepal",
      "region" : "TC1"
    },
    "BGW" : {
      "country_code" : "IQ",
     "city" : "Baghdad",
      "airport_name": "Baghdad",
     "airportcode" : "BGW",
      "cid" : 0,
      "latitude"  : "33.262539",
      "longitude"  : "44.234578",
      "sid" : 0,
      "cyid" : 0,
      "listing_display" : true,
      "dst_indicator" : "U",
      "outbound" : 178,
      "tzr" : "Asia/Baghdad",
      "timezone"  : "3",
      "country"  : "Iraq",
      "region" : "TC1"
    },
    "BGY" : {
      "country_code" : "IT",
     "city" : "Milan",
      "airport_name": "Orio Al Serio",
     "airportcode" : "BGY",
      "cid" : 0,
      "latitude"  : "45.6667",
      "longitude"  : "9.7",
      "sid" : 0,
      "cyid" : 0,
      "listing_display" : true,
      "dst_indicator" : "E",
      "outbound" : 132,
      "tzr" : "Europe/Rome",
      "timezone"  : "2",
      "country"  : "Italy",
      "region" : "TC1"
    },
    "SIN" : {
      "country_code" : "SG",
     "city" : "Singapore",
      "airport_name": "Changi",
     "airportcode" : "SIN",
      "cid" : 0,
      "latitude"  : "1.2917",
      "longitude"  : "103.85",
      "sid" : 0,
      "cyid" : 0,
      "listing_display" : true,
      "dst_indicator" : "U",
      "outbound" : 4562,
      "tzr" : "Asia/Singapore",
      "timezone"  : "8",
      "country"  : "Singapore",
      "region" : "TC1"
    },
    "SIQ" : {
      "country_code" : "ID",
     "city" : "Singkep",
      "airport_name": "Dabo",
     "airportcode" : "SIQ",
      "cid" : 0,
      "latitude"  : "-0.479189",
      "longitude"  : "104.579283",
      "sid" : 0,
      "cyid" : 0,
      "listing_display" : true,
      "dst_indicator" : "U",
      "outbound" : 0,
      "tzr" : "Asia/Jakarta",
      "timezone"  : "7",
      "country"  : "Indonesia",
      "region" : "TC1"
    },
    "SIP" : {
      "country_code" : "UA",
     "city" : "Simferopol",
      "airport_name": "Simferopol",
     "airportcode" : "SIP",
      "cid" : 0,
      "latitude"  : "45.052222",
      "longitude"  : "33.975139",
      "sid" : 0,
      "cyid" : 0,
      "listing_display" : true,
      "dst_indicator" : "E",
      "outbound" : 173,
      "tzr" : "Europe/Simferopol",
      "timezone"  : "2",
      "country"  : "Ukraine",
      "region" : "TC1"
    },
    "BHB" : {
      "country_code" : "US",
     "city" : "Bar Harbor",
      "airport_name": "Hancock County",
     "airportcode" : "BHB",
      "cid" : 0,
      "latitude"  : "44.45",
      "longitude"  : "-68.3667",
      "sid" : 0,
      "cyid" : 0,
      "listing_display" : true,
      "dst_indicator" : "A",
      "outbound" : 38,
      "tzr" : "America/New_York",
      "timezone"  : "-4",
      "country"  : "United States",
      "region" : "TC1"
    },
    "BHE" : {
      "country_code" : "NZ",
     "city" : "Woodbourne",
      "airport_name": "Woodbourne",
     "airportcode" : "BHE",
      "cid" : 0,
      "latitude"  : "-41.518333",
      "longitude"  : "173.870278",
      "sid" : 0,
      "cyid" : 0,
      "listing_display" : true,
      "dst_indicator" : "Z",
      "outbound" : 186,
      "tzr" : "Pacific/Auckland",
      "timezone"  : "12",
      "country"  : "New Zealand",
      "region" : "TC1"
    },
    "BHD" : {
      "country_code" : "XB",
     "city" : "Belfast",
      "airport_name": "Belfast City",
     "airportcode" : "BHD",
      "cid" : 0,
      "latitude"  : "54.6167",
      "longitude"  : "-5.8833",
      "sid" : 0,
      "cyid" : 0,
      "listing_display" : true,
      "dst_indicator" : "E",
      "outbound" : 674,
      "tzr" : "Europe/London",
      "timezone"  : "1",
      "country"  : "Northern Ireland",
      "region" : "TC1"
    },
    "SIT" : {
      "country_code" : "US",
     "city" : "Sitka",
      "airport_name": "Sitka",
     "airportcode" : "SIT",
      "cid" : 0,
      "latitude"  : "57.0667",
      "longitude"  : "-135.35",
      "sid" : 0,
      "cyid" : 0,
      "listing_display" : true,
      "dst_indicator" : "A",
      "outbound" : 111,
      "tzr" : "America/Sitka",
      "timezone"  : "-8",
      "country"  : "United States",
      "region" : "TC1"
    },
    "BHI" : {
      "country_code" : "AR",
     "city" : "Bahia Blanca",
      "airport_name": "Commandante",
     "airportcode" : "BHI",
      "cid" : 0,
      "latitude"  : "-38.7167",
      "longitude"  : "-62.1833",
      "sid" : 0,
      "cyid" : 0,
      "listing_display" : true,
      "dst_indicator" : "S",
      "outbound" : 37,
      "tzr" : "America/Argentina/Buenos_Aires",
      "timezone"  : "-3",
      "country"  : "Argentina",
      "region" : "TC1"
    },
    "BHH" : {
      "country_code" : "SA",
     "city" : "Bisha",
      "airport_name": "Bisha",
     "airportcode" : "BHH",
      "cid" : 0,
      "latitude"  : "19.98435",
      "longitude"  : "42.620881",
      "sid" : 0,
      "cyid" : 0,
      "listing_display" : true,
      "dst_indicator" : "U",
      "outbound" : 69,
      "tzr" : "Asia/Riyadh",
      "timezone"  : "3",
      "country"  : "Saudi Arabia",
      "region" : "TC1"
    },
    "BHK" : {
      "country_code" : "UZ",
     "city" : "Bukhara",
      "airport_name": "Bukhara",
     "airportcode" : "BHK",
      "cid" : 0,
      "latitude"  : "39.775",
      "longitude"  : "64.483333",
      "sid" : 0,
      "cyid" : 0,
      "listing_display" : true,
      "dst_indicator" : "U",
      "outbound" : 50,
      "tzr" : "Asia/Samarkand",
      "timezone"  : "5",
      "country"  : "Uzbekistan",
      "region" : "TC1"
    },
    "BHJ" : {
      "country_code" : "IN",
     "city" : "Bhuj",
      "airport_name": "Rudra Mata",
     "airportcode" : "BHJ",
      "cid" : 0,
      "latitude"  : "23.2885",
      "longitude"  : "69.6705",
      "sid" : 0,
      "cyid" : 0,
      "listing_display" : true,
      "dst_indicator" : "N",
      "outbound" : 14,
      "tzr" : "Asia/Kolkata",
      "timezone"  : "5.5",
      "country"  : "India",
      "region" : "TC1"
    },
    "BHM" : {
      "country_code" : "US",
     "city" : "Birmingham",
      "airport_name": "Birmingham",
     "airportcode" : "BHM",
      "cid" : 0,
      "latitude"  : "33.5667",
      "longitude"  : "-86.75",
      "sid" : 0,
      "cyid" : 0,
      "listing_display" : true,
      "dst_indicator" : "A",
      "outbound" : 4047,
      "tzr" : "America/Chicago",
      "timezone"  : "-5",
      "country"  : "United States",
      "region" : "TC1"
    },
    "BHO" : {
      "country_code" : "IN",
     "city" : "Bhopal",
      "airport_name": "Raja Bhoj",
     "airportcode" : "BHO",
      "cid" : 0,
      "latitude"  : "23.2887",
      "longitude"  : "77.3395",
      "sid" : 0,
      "cyid" : 0,
      "listing_display" : true,
      "dst_indicator" : "N",
      "outbound" : 59,
      "tzr" : "Asia/Kolkata",
      "timezone"  : "5.5",
      "country"  : "India",
      "region" : "TC1"
    },
    "BHQ" : {
      "country_code" : "AU",
     "city" : "Broken Hill",
      "airport_name": "Broken Hill",
     "airportcode" : "BHQ",
      "cid" : 0,
      "latitude"  : "-32.0014",
      "longitude"  : "141.472",
      "sid" : 0,
      "cyid" : 0,
      "listing_display" : true,
      "dst_indicator" : "O",
      "outbound" : 43,
      "tzr" : "Australia/Broken_Hill",
      "timezone"  : "9.5",
      "country"  : "Australia",
      "region" : "TC1"
    },
    "BHS" : {
      "country_code" : "AU",
     "city" : "Bathurst",
      "airport_name": "Bathurst",
     "airportcode" : "BHS",
      "cid" : 0,
      "latitude"  : "-33.4094",
      "longitude"  : "149.652",
      "sid" : 0,
      "cyid" : 0,
      "listing_display" : true,
      "dst_indicator" : "O",
      "outbound" : 26,
      "tzr" : "Australia/Sydney",
      "timezone"  : "10",
      "country"  : "Australia",
      "region" : "TC1"
    },
    "SJD" : {
      "country_code" : "MX",
     "city" : "San Jose Cabo",
      "airport_name": "Los Cabos",
     "airportcode" : "SJD",
      "cid" : 0,
      "latitude"  : "23.05",
      "longitude"  : "-109.6833",
      "sid" : 0,
      "cyid" : 0,
      "listing_display" : true,
      "dst_indicator" : "S",
      "outbound" : 1548,
      "tzr" : "America/Mazatlan",
      "timezone"  : "-6",
      "country"  : "Mexico",
      "region" : "TC1"
    },
    "SJC" : {
      "country_code" : "US",
     "city" : "San Jose",
      "airport_name": "San Jose",
     "airportcode" : "SJC",
      "cid" : 0,
      "latitude"  : "37.3528",
      "longitude"  : "-121.9194",
      "sid" : 0,
      "cyid" : 0,
      "listing_display" : true,
      "dst_indicator" : "A",
      "outbound" : 7283,
      "tzr" : "America/Los_Angeles",
      "timezone"  : "-7",
      "country"  : "United States",
      "region" : "TC1"
    },
    "BHR" : {
      "country_code" : "NP",
     "city" : "Bharatpur",
      "airport_name": "Bharatpur",
     "airportcode" : "BHR",
      "cid" : 0,
      "latitude"  : "",
      "longitude"  : "",
      "sid" : 0,
      "cyid" : 0,
      "listing_display" : true,
      "dst_indicator" : "N",
      "outbound" : 363,
      "tzr" : "Asia/Kathmandu",
      "timezone"  : "5.75",
      "country"  : "Nepal",
      "region" : "TC1"
    },
    "BHU" : {
      "country_code" : "IN",
     "city" : "Bhavnagar",
      "airport_name": "Bhavnagar",
     "airportcode" : "BHU",
      "cid" : 0,
      "latitude"  : "21.7498",
      "longitude"  : "72.1814",
      "sid" : 0,
      "cyid" : 0,
      "listing_display" : true,
      "dst_indicator" : "N",
      "outbound" : 7,
      "tzr" : "Asia/Kolkata",
      "timezone"  : "5.5",
      "country"  : "India",
      "region" : "TC1"
    },
    "SJE" : {
      "country_code" : "CO",
     "city" : "San Jose Del Guaviare",
      "airport_name": "Jorge E Gonzalez Torres",
     "airportcode" : "SJE",
      "cid" : 0,
      "latitude"  : "2.579694",
      "longitude"  : "-72.639358",
      "sid" : 0,
      "cyid" : 0,
      "listing_display" : true,
      "dst_indicator" : "U",
      "outbound" : 2,
      "tzr" : "America/Bogota",
      "timezone"  : "-5",
      "country"  : "Colombia",
      "region" : "TC1"
    },
    "BHV" : {
      "country_code" : "PK",
     "city" : "Bahawalpur",
      "airport_name": "Bahawalpur",
     "airportcode" : "BHV",
      "cid" : 0,
      "latitude"  : "29.3481",
      "longitude"  : "71.717981",
      "sid" : 0,
      "cyid" : 0,
      "listing_display" : true,
      "dst_indicator" : "U",
      "outbound" : 45,
      "tzr" : "Asia/Karachi",
      "timezone"  : "5",
      "country"  : "Pakistan",
      "region" : "TC1"
    },
    "BHY" : {
      "country_code" : "CN",
     "city" : "Beihai",
      "airport_name": "Beihai",
     "airportcode" : "BHY",
      "cid" : 0,
      "latitude"  : "21.5394",
      "longitude"  : "109.294",
      "sid" : 0,
      "cyid" : 0,
      "listing_display" : true,
      "dst_indicator" : "U",
      "outbound" : 50,
      "tzr" : "Asia/Chongqing",
      "timezone"  : "8",
      "country"  : "China",
      "region" : "TC1"
    },
    "SJJ" : {
      "country_code" : "BA",
     "city" : "Sarajevo",
      "airport_name": "Butmir",
     "airportcode" : "SJJ",
      "cid" : 0,
      "latitude"  : "43.8167",
      "longitude"  : "18.35",
      "sid" : 0,
      "cyid" : 0,
      "listing_display" : true,
      "dst_indicator" : "E",
      "outbound" : 312,
      "tzr" : "Europe/Sarajevo",
      "timezone"  : "2",
      "country"  : "Bosnia And Herzegovina",
      "region" : "TC1"
    },
    "BHX" : {
      "country_code" : "GB",
     "city" : "Birmingham",
      "airport_name": "Birmingham",
     "airportcode" : "BHX",
      "cid" : 0,
      "latitude"  : "52.45",
      "longitude"  : "-1.75",
      "sid" : 0,
      "cyid" : 0,
      "listing_display" : true,
      "dst_indicator" : "E",
      "outbound" : 1675,
      "tzr" : "Europe/London",
      "timezone"  : "1",
      "country"  : "United Kingdom",
      "region" : "TC1"
    },
    "SJI" : {
      "country_code" : "PH",
     "city" : "San Jose",
      "airport_name": "Antique",
     "airportcode" : "SJI",
      "cid" : 0,
      "latitude"  : "10.766044",
      "longitude"  : "121.933439",
      "sid" : 0,
      "cyid" : 0,
      "listing_display" : true,
      "dst_indicator" : "U",
      "outbound" : 4,
      "tzr" : "Asia/Manila",
      "timezone"  : "8",
      "country"  : "Philippines",
      "region" : "TC1"
    },
    "BHZ" : {
      "country_code" : "BR",
     "city" : "Belo Horizonte     /belo Horizon",
      "airport_name": "All airports",
     "airportcode" : "BHZ",
      "cid" : 0,
      "latitude"  : "-19.6944",
      "longitude"  : "-43.8593",
      "sid" : 0,
      "cyid" : 0,
      "listing_display" : true,
      "dst_indicator" : "U",
      "outbound" : 0,
      "tzr" : "America/Sao_Paulo",
      "timezone"  : "-3",
      "country"  : "Brazil",
      "region" : "TC1"
    },
    "SJK" : {
      "country_code" : "BR",
     "city" : "Sao Jose Dos Campos",
      "airport_name": "Professor Urbano Ernesto Stumpf",
     "airportcode" : "SJK",
      "cid" : 0,
      "latitude"  : "-23.228172",
      "longitude"  : "-45.862739",
      "sid" : 0,
      "cyid" : 0,
      "listing_display" : true,
      "dst_indicator" : "U",
      "outbound" : 37,
      "tzr" : "America/Sao_Paulo",
      "timezone"  : "-3",
      "country"  : "Brazil",
      "region" : "TC1"
    },
    "SJP" : {
      "country_code" : "BR",
     "city" : "Sao Jose Do Rio Preto",
      "airport_name": "Sao Jose Do Rio Preto",
     "airportcode" : "SJP",
      "cid" : 0,
      "latitude"  : "-20.816567",
      "longitude"  : "-49.406511",
      "sid" : 0,
      "cyid" : 0,
      "listing_display" : true,
      "dst_indicator" : "U",
      "outbound" : 32,
      "tzr" : "America/Sao_Paulo",
      "timezone"  : "-3",
      "country"  : "Brazil",
      "region" : "TC1"
    },
    "SJO" : {
      "country_code" : "CR",
     "city" : "San Jose",
      "airport_name": "Juan Santa Maria",
     "airportcode" : "SJO",
      "cid" : 0,
      "latitude"  : "9.9333",
      "longitude"  : "-84.1",
      "sid" : 0,
      "cyid" : 0,
      "listing_display" : true,
      "dst_indicator" : "U",
      "outbound" : 1419,
      "tzr" : "America/Costa_Rica",
      "timezone"  : "-6",
      "country"  : "Costa Rica",
      "region" : "TC1"
    },
    "BIA" : {
      "country_code" : "FR",
     "city" : "Bastia",
      "airport_name": "Poretta",
     "airportcode" : "BIA",
      "cid" : 0,
      "latitude"  : "42.552664",
      "longitude"  : "9.483731",
      "sid" : 0,
      "cyid" : 0,
      "listing_display" : true,
      "dst_indicator" : "E",
      "outbound" : 188,
      "tzr" : "Europe/Paris",
      "timezone"  : "1",
      "country"  : "France",
      "region" : "TC1"
    },
    "SJT" : {
      "country_code" : "US",
     "city" : "San Angelo",
      "airport_name": "Mathis Field",
     "airportcode" : "SJT",
      "cid" : 0,
      "latitude"  : "31.3667",
      "longitude"  : "-100.5",
      "sid" : 0,
      "cyid" : 0,
      "listing_display" : true,
      "dst_indicator" : "A",
      "outbound" : 31,
      "tzr" : "America/Chicago",
      "timezone"  : "-5",
      "country"  : "United States",
      "region" : "TC1"
    },
    "SJU" : {
      "country_code" : "PR",
     "city" : "San Juan",
      "airport_name": "Luiz Munoz Marin",
     "airportcode" : "SJU",
      "cid" : 0,
      "latitude"  : "18.45",
      "longitude"  : "-66",
      "sid" : 0,
      "cyid" : 0,
      "listing_display" : true,
      "dst_indicator" : "U",
      "outbound" : 2766,
      "tzr" : "America/Puerto_Rico",
      "timezone"  : "-4",
      "country"  : "Puerto Rico",
      "region" : "TC1"
    },
    "SJW" : {
      "country_code" : "CN",
     "city" : "Shijiazhuang",
      "airport_name": "Shijiazhuang Daguocun",
     "airportcode" : "SJW",
      "cid" : 0,
      "latitude"  : "38.280686",
      "longitude"  : "114.6973",
      "sid" : 0,
      "cyid" : 0,
      "listing_display" : true,
      "dst_indicator" : "U",
      "outbound" : 177,
      "tzr" : "Asia/Shanghai",
      "timezone"  : "8",
      "country"  : "China",
      "region" : "TC1"
    },
    "SJZ" : {
      "country_code" : "PT",
     "city" : "Sao Jorge Island",
      "airport_name": "Sao Jorge",
     "airportcode" : "SJZ",
      "cid" : 0,
      "latitude"  : "38.6655",
      "longitude"  : "-28.175817",
      "sid" : 0,
      "cyid" : 0,
      "listing_display" : true,
      "dst_indicator" : "E",
      "outbound" : 57,
      "tzr" : "Atlantic/Azores",
      "timezone"  : "-1",
      "country"  : "Portugal",
      "region" : "TC1"
    },
    "BII" : {
      "country_code" : "MH",
     "city" : "Bikini Atoll",
      "airport_name": "Enyu Airfield",
     "airportcode" : "BII",
      "cid" : 0,
      "latitude"  : "11.5225",
      "longitude"  : "165.565",
      "sid" : 0,
      "cyid" : 0,
      "listing_display" : true,
      "dst_indicator" : "U",
      "outbound" : 0,
      "tzr" : "Pacific/Kwajalein",
      "timezone"  : "12",
      "country"  : "Marshall Islands",
      "region" : "TC1"
    },
    "SJY" : {
      "country_code" : "FI",
     "city" : "Sein_joki / Ilmajoki",
      "airport_name": "Sein?joki",
     "airportcode" : "SJY",
      "cid" : 0,
      "latitude"  : "62.6921",
      "longitude"  : "22.8323",
      "sid" : 0,
      "cyid" : 0,
      "listing_display" : true,
      "dst_indicator" : "E",
      "outbound" : 0,
      "tzr" : "Europe/Helsinki",
      "timezone"  : "2",
      "country"  : "Finland",
      "region" : "TC1"
    },
    "BIL" : {
      "country_code" : "US",
     "city" : "Billings",
      "airport_name": "Logan Field",
     "airportcode" : "BIL",
      "cid" : 0,
      "latitude"  : "45.8",
      "longitude"  : "-108.5333",
      "sid" : 0,
      "cyid" : 0,
      "listing_display" : true,
      "dst_indicator" : "A",
      "outbound" : 971,
      "tzr" : "America/Denver",
      "timezone"  : "-6",
      "country"  : "United States",
      "region" : "TC1"
    },
    "BIK" : {
      "country_code" : "ID",
     "city" : "Biak",
      "airport_name": "Frans Kaisiepo",
     "airportcode" : "BIK",
      "cid" : 0,
      "latitude"  : "-1.190017",
      "longitude"  : "136.107997",
      "sid" : 0,
      "cyid" : 0,
      "listing_display" : true,
      "dst_indicator" : "U",
      "outbound" : 11,
      "tzr" : "Asia/Jayapura",
      "timezone"  : "9",
      "country"  : "Indonesia",
      "region" : "TC1"
    },
    "JYV" : {
      "country_code" : "FI",
     "city" : "Jyvaskyla",
      "airport_name": "Jyvaskyla",
     "airportcode" : "JYV",
      "cid" : 0,
      "latitude"  : "62.399453",
      "longitude"  : "25.678253",
      "sid" : 0,
      "cyid" : 0,
      "listing_display" : true,
      "dst_indicator" : "E",
      "outbound" : 39,
      "tzr" : "Europe/Helsinki",
      "timezone"  : "2",
      "country"  : "Finland",
      "region" : "TC1"
    },
    "BIM" : {
      "country_code" : "BS",
     "city" : "Alice Town",
      "airport_name": "South Bimini",
     "airportcode" : "BIM",
      "cid" : 0,
      "latitude"  : "25.699881",
      "longitude"  : "-79.264656",
      "sid" : 0,
      "cyid" : 0,
      "listing_display" : true,
      "dst_indicator" : "U",
      "outbound" : 3,
      "tzr" : "America/Nassau",
      "timezone"  : "-5",
      "country"  : "Bahamas",
      "region" : "TC1"
    },
    "BIO" : {
      "country_code" : "ES",
     "city" : "Bilbao",
      "airport_name": "Bilbao",
     "airportcode" : "BIO",
      "cid" : 0,
      "latitude"  : "43.3",
      "longitude"  : "-2.9167",
      "sid" : 0,
      "cyid" : 0,
      "listing_display" : true,
      "dst_indicator" : "E",
      "outbound" : 1592,
      "tzr" : "Europe/Madrid",
      "timezone"  : "2",
      "country"  : "Spain",
      "region" : "TC1"
    },
    "BIR" : {
      "country_code" : "NP",
     "city" : "Biratnagar",
      "airport_name": "Biratnagar",
     "airportcode" : "BIR",
      "cid" : 0,
      "latitude"  : "26.481453",
      "longitude"  : "87.264036",
      "sid" : 0,
      "cyid" : 0,
      "listing_display" : true,
      "dst_indicator" : "N",
      "outbound" : 16,
      "tzr" : "Asia/Kathmandu",
      "timezone"  : "5.75",
      "country"  : "Nepal",
      "region" : "TC1"
    },
    "SKC" : {
      "country_code" : "PG",
     "city" : "Suki",
      "airport_name": "Suki",
     "airportcode" : "SKC",
      "cid" : 0,
      "latitude"  : "-8.033",
      "longitude"  : "141.717",
      "sid" : 0,
      "cyid" : 0,
      "listing_display" : true,
      "dst_indicator" : "U",
      "outbound" : 0,
      "tzr" : "Pacific/Port_Moresby",
      "timezone"  : "10",
      "country"  : "Papua New Guinea",
      "region" : "TC1"
    },
    "BIQ" : {
      "country_code" : "FR",
     "city" : "Biarritz-bayonne",
      "airport_name": "Anglet",
     "airportcode" : "BIQ",
      "cid" : 0,
      "latitude"  : "43.468419",
      "longitude"  : "-1.523325",
      "sid" : 0,
      "cyid" : 0,
      "listing_display" : true,
      "dst_indicator" : "E",
      "outbound" : 176,
      "tzr" : "Europe/Paris",
      "timezone"  : "1",
      "country"  : "France",
      "region" : "TC1"
    },
    "SKB" : {
      "country_code" : "KN",
     "city" : "St Kitts",
      "airport_name": "Robert L Bradshaw",
     "airportcode" : "SKB",
      "cid" : 0,
      "latitude"  : "17.3113",
      "longitude"  : "-62.7181",
      "sid" : 0,
      "cyid" : 0,
      "listing_display" : true,
      "dst_indicator" : "U",
      "outbound" : 81,
      "tzr" : "America/St_Kitts",
      "timezone"  : "-4",
      "country"  : "Saint Kitts And Nevis",
      "region" : "TC1"
    },
    "SKE" : {
      "country_code" : "NO",
     "city" : "Skien",
      "airport_name": "Geiteryggen",
     "airportcode" : "SKE",
      "cid" : 0,
      "latitude"  : "59.185",
      "longitude"  : "9.566944",
      "sid" : 0,
      "cyid" : 0,
      "listing_display" : true,
      "dst_indicator" : "E",
      "outbound" : 57,
      "tzr" : "Europe/Oslo",
      "timezone"  : "1",
      "country"  : "Norway",
      "region" : "TC1"
    },
    "BIS" : {
      "country_code" : "US",
     "city" : "Bismarck",
      "airport_name": "Bismarck Municipal",
     "airportcode" : "BIS",
      "cid" : 0,
      "latitude"  : "46.7833",
      "longitude"  : "-100.75",
      "sid" : 0,
      "cyid" : 0,
      "listing_display" : true,
      "dst_indicator" : "A",
      "outbound" : 756,
      "tzr" : "America/Chicago",
      "timezone"  : "-5",
      "country"  : "United States",
      "region" : "TC1"
    },
    "SKD" : {
      "country_code" : "UZ",
     "city" : "Samarkand",
      "airport_name": "Samarkand",
     "airportcode" : "SKD",
      "cid" : 0,
      "latitude"  : "39.700547",
      "longitude"  : "66.983829",
      "sid" : 0,
      "cyid" : 0,
      "listing_display" : true,
      "dst_indicator" : "U",
      "outbound" : 65,
      "tzr" : "Asia/Samarkand",
      "timezone"  : "5",
      "country"  : "Uzbekistan",
      "region" : "TC1"
    },
    "SKG" : {
      "country_code" : "GR",
     "city" : "Thessaloniki",
      "airport_name": "Makedonia",
     "airportcode" : "SKG",
      "cid" : 0,
      "latitude"  : "40.5167",
      "longitude"  : "22.9667",
      "sid" : 0,
      "cyid" : 0,
      "listing_display" : true,
      "dst_indicator" : "E",
      "outbound" : 564,
      "tzr" : "Europe/Athens",
      "timezone"  : "3",
      "country"  : "Greece",
      "region" : "TC1"
    },
    "SKH" : {
      "country_code" : "NP",
     "city" : "Surkhet",
      "airport_name": "Surkhet",
     "airportcode" : "SKH",
      "cid" : 0,
      "latitude"  : "28.586",
      "longitude"  : "81.636",
      "sid" : 0,
      "cyid" : 0,
      "listing_display" : true,
      "dst_indicator" : "N",
      "outbound" : 0,
      "tzr" : "Asia/Kathmandu",
      "timezone"  : "5.75",
      "country"  : "Nepal",
      "region" : "TC1"
    },
    "SKL" : {
      "country_code" : "GB",
     "city" : "Isle Of Skye",
      "airport_name": "Broadford",
     "airportcode" : "SKL",
      "cid" : 0,
      "latitude"  : "57.3333",
      "longitude"  : "-6.25",
      "sid" : 0,
      "cyid" : 0,
      "listing_display" : true,
      "dst_indicator" : "E",
      "outbound" : 0,
      "tzr" : "Europe/London",
      "timezone"  : "1",
      "country"  : "United Kingdom",
      "region" : "TC1"
    },
    "SKO" : {
      "country_code" : "NG",
     "city" : "Sokoto",
      "airport_name": "Sadiq Abubakar Iii",
     "airportcode" : "SKO",
      "cid" : 0,
      "latitude"  : "12.916322",
      "longitude"  : "5.207189",
      "sid" : 0,
      "cyid" : 0,
      "listing_display" : true,
      "dst_indicator" : "N",
      "outbound" : 3,
      "tzr" : "Africa/Lagos",
      "timezone"  : "1",
      "country"  : "Nigeria",
      "region" : "TC1"
    },
    "SKN" : {
      "country_code" : "NO",
     "city" : "Stokmarknes",
      "airport_name": "Skagen",
     "airportcode" : "SKN",
      "cid" : 0,
      "latitude"  : "68.580833",
      "longitude"  : "15.026111",
      "sid" : 0,
      "cyid" : 0,
      "listing_display" : true,
      "dst_indicator" : "E",
      "outbound" : 144,
      "tzr" : "Europe/Oslo",
      "timezone"  : "1",
      "country"  : "Norway",
      "region" : "TC1"
    },
    "BJA" : {
      "country_code" : "DZ",
     "city" : "Bejaja",
      "airport_name": "Soummam",
     "airportcode" : "BJA",
      "cid" : 0,
      "latitude"  : "36.711997",
      "longitude"  : "5.069922",
      "sid" : 0,
      "cyid" : 0,
      "listing_display" : true,
      "dst_indicator" : "N",
      "outbound" : 24,
      "tzr" : "Africa/Algiers",
      "timezone"  : "1",
      "country"  : "Algeria",
      "region" : "TC1"
    },
    "JZH" : {
      "country_code" : "CN",
     "city" : "Jiuzhaigou",
      "airport_name": "Jiuzhaigou Huanglong",
     "airportcode" : "JZH",
      "cid" : 0,
      "latitude"  : "32.857",
      "longitude"  : "103.683",
      "sid" : 0,
      "cyid" : 0,
      "listing_display" : true,
      "dst_indicator" : "U",
      "outbound" : 83,
      "tzr" : "Asia/Chongqing",
      "timezone"  : "8",
      "country"  : "China",
      "region" : "TC1"
    },
    "SKP" : {
      "country_code" : "MK",
     "city" : "Skopje",
      "airport_name": "Skopje",
     "airportcode" : "SKP",
      "cid" : 0,
      "latitude"  : "41.9833",
      "longitude"  : "21.4667",
      "sid" : 0,
      "cyid" : 0,
      "listing_display" : true,
      "dst_indicator" : "E",
      "outbound" : 315,
      "tzr" : "Europe/Skopje",
      "timezone"  : "2",
      "country"  : "Macedonia",
      "region" : "TC1"
    },
    "SKS" : {
      "country_code" : "DK",
     "city" : "Skrydstrup",
      "airport_name": "Skrydstrup",
     "airportcode" : "SKS",
      "cid" : 0,
      "latitude"  : "55.225553",
      "longitude"  : "9.263931",
      "sid" : 0,
      "cyid" : 0,
      "listing_display" : true,
      "dst_indicator" : "E",
      "outbound" : 0,
      "tzr" : "Europe/Copenhagen",
      "timezone"  : "1",
      "country"  : "Denmark",
      "region" : "TC1"
    },
    "BJB" : {
      "country_code" : "IR",
     "city" : "Bojnourd",
      "airport_name": "Bojnourd",
     "airportcode" : "BJB",
      "cid" : 0,
      "latitude"  : "37.492958",
      "longitude"  : "57.308219",
      "sid" : 0,
      "cyid" : 0,
      "listing_display" : true,
      "dst_indicator" : "E",
      "outbound" : 4,
      "tzr" : "Asia/Tehran",
      "timezone"  : "3.5",
      "country"  : "Iran",
      "region" : "TC1"
    },
    "SKU" : {
      "country_code" : "GR",
     "city" : "Skiros",
      "airport_name": "Skiros",
     "airportcode" : "SKU",
      "cid" : 0,
      "latitude"  : "38.967553",
      "longitude"  : "24.487228",
      "sid" : 0,
      "cyid" : 0,
      "listing_display" : true,
      "dst_indicator" : "E",
      "outbound" : 4,
      "tzr" : "Europe/Athens",
      "timezone"  : "2",
      "country"  : "Greece",
      "region" : "TC1"
    },
    "SKT" : {
      "country_code" : "PK",
     "city" : "Sialkot",
      "airport_name": "Sialkot",
     "airportcode" : "SKT",
      "cid" : 0,
      "latitude"  : "32.5356",
      "longitude"  : "74.3639",
      "sid" : 0,
      "cyid" : 0,
      "listing_display" : true,
      "dst_indicator" : "U",
      "outbound" : 41,
      "tzr" : "Asia/Karachi",
      "timezone"  : "5",
      "country"  : "Pakistan",
      "region" : "TC1"
    },
    "BJF" : {
      "country_code" : "NO",
     "city" : "Batsfjord",
      "airport_name": "Batsfjord",
     "airportcode" : "BJF",
      "cid" : 0,
      "latitude"  : "70.600278",
      "longitude"  : "29.6925",
      "sid" : 0,
      "cyid" : 0,
      "listing_display" : true,
      "dst_indicator" : "E",
      "outbound" : 134,
      "tzr" : "Europe/Oslo",
      "timezone"  : "1",
      "country"  : "Norway",
      "region" : "TC1"
    },
    "SKV" : {
      "country_code" : "EG",
     "city" : "St. Catherine",
      "airport_name": "St Catherine",
     "airportcode" : "SKV",
      "cid" : 0,
      "latitude"  : "28.685278",
      "longitude"  : "34.0625",
      "sid" : 0,
      "cyid" : 0,
      "listing_display" : true,
      "dst_indicator" : "U",
      "outbound" : 0,
      "tzr" : "Africa/Cairo",
      "timezone"  : "2",
      "country"  : "Egypt",
      "region" : "TC1"
    },
    "BJI" : {
      "country_code" : "US",
     "city" : "Bemidji",
      "airport_name": "Bemidji Municipal",
     "airportcode" : "BJI",
      "cid" : 0,
      "latitude"  : "47.5167",
      "longitude"  : "-94.9333",
      "sid" : 0,
      "cyid" : 0,
      "listing_display" : true,
      "dst_indicator" : "A",
      "outbound" : 24,
      "tzr" : "America/Chicago",
      "timezone"  : "-5",
      "country"  : "United States",
      "region" : "TC1"
    },
    "SKZ" : {
      "country_code" : "PK",
     "city" : "Sukkur",
      "airport_name": "Sukkur",
     "airportcode" : "SKZ",
      "cid" : 0,
      "latitude"  : "27.721989",
      "longitude"  : "68.791683",
      "sid" : 0,
      "cyid" : 0,
      "listing_display" : true,
      "dst_indicator" : "U",
      "outbound" : 59,
      "tzr" : "Asia/Karachi",
      "timezone"  : "5",
      "country"  : "Pakistan",
      "region" : "TC1"
    },
    "BJM" : {
      "country_code" : "BI",
     "city" : "Bujumbura",
      "airport_name": "Bujumbura",
     "airportcode" : "BJM",
      "cid" : 0,
      "latitude"  : "-3.3167",
      "longitude"  : "29.3167",
      "sid" : 0,
      "cyid" : 0,
      "listing_display" : true,
      "dst_indicator" : "U",
      "outbound" : 242,
      "tzr" : "Africa/Bujumbura",
      "timezone"  : "2",
      "country"  : "Burundi",
      "region" : "TC1"
    },
    "BJL" : {
      "country_code" : "GM",
     "city" : "Banjul",
      "airport_name": "Yundum",
     "airportcode" : "BJL",
      "cid" : 0,
      "latitude"  : "13.35",
      "longitude"  : "-16.6667",
      "sid" : 0,
      "cyid" : 0,
      "listing_display" : true,
      "dst_indicator" : "N",
      "outbound" : 140,
      "tzr" : "Africa/Banjul",
      "timezone"  : "0",
      "country"  : "Gambia",
      "region" : "TC1"
    },
    "SLA" : {
      "country_code" : "AR",
     "city" : "Salta",
      "airport_name": "Salta",
     "airportcode" : "SLA",
      "cid" : 0,
      "latitude"  : "-24.855978",
      "longitude"  : "-65.486169",
      "sid" : 0,
      "cyid" : 0,
      "listing_display" : true,
      "dst_indicator" : "S",
      "outbound" : 114,
      "tzr" : "America/Argentina/Salta",
      "timezone"  : "-3",
      "country"  : "Argentina",
      "region" : "TC1"
    },
    "BJS" : {
      "country_code" : "CN",
     "city" : "Beijing",
      "airport_name": "All airports",
     "airportcode" : "BJS",
      "cid" : 0,
      "latitude"  : "40.05",
      "longitude"  : "116.5833",
      "sid" : 0,
      "cyid" : 0,
      "listing_display" : true,
      "dst_indicator" : "U",
      "outbound" : 0,
      "tzr" : "Asia/Harbin",
      "timezone"  : "8",
      "country"  : "China",
      "region" : "TC1"
    },
    "SLD" : {
      "country_code" : "SK",
     "city" : "Sliac",
      "airport_name": "Sliac",
     "airportcode" : "SLD",
      "cid" : 0,
      "latitude"  : "48.637839",
      "longitude"  : "19.134108",
      "sid" : 0,
      "cyid" : 0,
      "listing_display" : true,
      "dst_indicator" : "E",
      "outbound" : 0,
      "tzr" : "Europe/Bratislava",
      "timezone"  : "1",
      "country"  : "Slovakia",
      "region" : "TC1"
    },
    "BJR" : {
      "country_code" : "ET",
     "city" : "Bahar Dar",
      "airport_name": "Bahir Dar",
     "airportcode" : "BJR",
      "cid" : 0,
      "latitude"  : "11.608075",
      "longitude"  : "37.321644",
      "sid" : 0,
      "cyid" : 0,
      "listing_display" : true,
      "dst_indicator" : "U",
      "outbound" : 11,
      "tzr" : "Africa/Addis_Ababa",
      "timezone"  : "3",
      "country"  : "Ethiopia",
      "region" : "TC1"
    },
    "SLC" : {
      "country_code" : "US",
     "city" : "Salt Lake City",
      "airport_name": "Salt Lake City",
     "airportcode" : "SLC",
      "cid" : 0,
      "latitude"  : "40.7833",
      "longitude"  : "-111.9667",
      "sid" : 0,
      "cyid" : 0,
      "listing_display" : true,
      "dst_indicator" : "A",
      "outbound" : 17196,
      "tzr" : "America/Denver",
      "timezone"  : "-6",
      "country"  : "United States",
      "region" : "TC1"
    },
    "SLF" : {
      "country_code" : "SA",
     "city" : "Sulayel",
      "airport_name": "Sulayel",
     "airportcode" : "SLF",
      "cid" : 0,
      "latitude"  : "20.464744",
      "longitude"  : "45.619644",
      "sid" : 0,
      "cyid" : 0,
      "listing_display" : true,
      "dst_indicator" : "U",
      "outbound" : 0,
      "tzr" : "Asia/Riyadh",
      "timezone"  : "3",
      "country"  : "Saudi Arabia",
      "region" : "TC1"
    },
    "SLH" : {
      "country_code" : "VU",
     "city" : "Sola",
      "airport_name": "Sola",
     "airportcode" : "SLH",
      "cid" : 0,
      "latitude"  : "-13.8517",
      "longitude"  : "167.537",
      "sid" : 0,
      "cyid" : 0,
      "listing_display" : true,
      "dst_indicator" : "U",
      "outbound" : 32,
      "tzr" : "Pacific/Efate",
      "timezone"  : "11",
      "country"  : "Vanuatu",
      "region" : "TC1"
    },
    "BJV" : {
      "country_code" : "TR",
     "city" : "Bodrum",
      "airport_name": "Milas",
     "airportcode" : "BJV",
      "cid" : 0,
      "latitude"  : "37.2506",
      "longitude"  : "27.6643",
      "sid" : 0,
      "cyid" : 0,
      "listing_display" : true,
      "dst_indicator" : "E",
      "outbound" : 406,
      "tzr" : "Europe/Istanbul",
      "timezone"  : "3",
      "country"  : "Turkey",
      "region" : "TC1"
    },
    "BJX" : {
      "country_code" : "MX",
     "city" : "Leon/guanajuato",
      "airport_name": "Del Bajio",
     "airportcode" : "BJX",
      "cid" : 0,
      "latitude"  : "20.995",
      "longitude"  : "-102.4831",
      "sid" : 0,
      "cyid" : 0,
      "listing_display" : true,
      "dst_indicator" : "S",
      "outbound" : 1293,
      "tzr" : "America/Mexico_City",
      "timezone"  : "-5",
      "country"  : "Mexico",
      "region" : "TC1"
    },
    "SLI" : {
      "country_code" : "ZM",
     "city" : "Solwesi",
      "airport_name": "Solwesi",
     "airportcode" : "SLI",
      "cid" : 0,
      "latitude"  : "-12.1737",
      "longitude"  : "26.3651",
      "sid" : 0,
      "cyid" : 0,
      "listing_display" : true,
      "dst_indicator" : "U",
      "outbound" : 4,
      "tzr" : "Africa/Lusaka",
      "timezone"  : "2",
      "country"  : "Zambia",
      "region" : "TC1"
    },
    "SLL" : {
      "country_code" : "OM",
     "city" : "Salalah",
      "airport_name": "Salalah",
     "airportcode" : "SLL",
      "cid" : 0,
      "latitude"  : "17.038719",
      "longitude"  : "54.091297",
      "sid" : 0,
      "cyid" : 0,
      "listing_display" : true,
      "dst_indicator" : "U",
      "outbound" : 41,
      "tzr" : "Asia/Muscat",
      "timezone"  : "4",
      "country"  : "Oman",
      "region" : "TC1"
    },
    "BJZ" : {
      "country_code" : "ES",
     "city" : "Badajoz",
      "airport_name": "Talavera La Real",
     "airportcode" : "BJZ",
      "cid" : 0,
      "latitude"  : "38.89125",
      "longitude"  : "-6.821333",
      "sid" : 0,
      "cyid" : 0,
      "listing_display" : true,
      "dst_indicator" : "E",
      "outbound" : 15,
      "tzr" : "Europe/Madrid",
      "timezone"  : "1",
      "country"  : "Spain",
      "region" : "TC1"
    },
    "SLK" : {
      "country_code" : "US",
     "city" : "Saranac Lake",
      "airport_name": "Adirondack",
     "airportcode" : "SLK",
      "cid" : 0,
      "latitude"  : "44.4",
      "longitude"  : "-74.2",
      "sid" : 0,
      "cyid" : 0,
      "listing_display" : true,
      "dst_indicator" : "A",
      "outbound" : 5,
      "tzr" : "America/New_York",
      "timezone"  : "-4",
      "country"  : "United States",
      "region" : "TC1"
    },